pk,ville,pays,lat,lon,abbrev
1004564619,Aibak,Afghanistan,36.2534,68.0394,AFG
1004472345,Andkhoy,Afghanistan,36.95,65.1167,AFG
1004251962,Asadabad,Afghanistan,34.8742,71.1528,AFG
1004943705,Baghlan,Afghanistan,36.1328,68.7,AFG
1004654094,Balkh,Afghanistan,36.7581,66.8989,AFG
1004274041,Bamyan,Afghanistan,34.8167,67.8167,AFG
1004707647,Baraki Barak,Afghanistan,33.9667,68.9667,AFG
1004374554,Bazarak,Afghanistan,35.3129,69.5152,AFG
1004472874,Buyni Qarah,Afghanistan,36.3172,66.8747,AFG
1004817775,Charikar,Afghanistan,35.0183,69.1679,AFG
1004452653,Faizabad,Afghanistan,37.1298,70.5792,AFG
1004523791,Farah,Afghanistan,32.3436,62.1194,AFG
1004988038,Fayroz Koh,Afghanistan,34.5225,65.2517,AFG
1004468894,Gardez,Afghanistan,33.5931,69.2297,AFG
1004167490,Ghazni,Afghanistan,33.5492,68.4233,AFG
1004237782,Herat,Afghanistan,34.3738,62.1792,AFG
1004315012,Jalalabad,Afghanistan,34.4303,70.4528,AFG
1004993580,Kabul,Afghanistan,34.5328,69.1658,AFG
1004003059,Kandahar,Afghanistan,31.6078,65.7053,AFG
1004546127,Karukh,Afghanistan,34.4868,62.5918,AFG
1004931539,Khanabad,Afghanistan,36.6831,69.1636,AFG
1004919977,Khost,Afghanistan,33.3333,69.9167,AFG
1004486677,Khulm,Afghanistan,36.6833,67.6833,AFG
1004450357,Kotah-ye `Ashro,Afghanistan,34.45,68.8,AFG
1004227517,Kunduz,Afghanistan,36.728,68.8725,AFG
1004765445,Lashkar Gah,Afghanistan,31.5938,64.3716,AFG
1004151943,Mahmud-e Raqi,Afghanistan,35.0167,69.3333,AFG
1004798735,Maidan Shahr,Afghanistan,34.3972,68.8697,AFG
1004622920,Maimanah,Afghanistan,35.9302,64.7701,AFG
1004436363,Mazar-e Sharif,Afghanistan,36.7,67.1167,AFG
1004590769,Mehtar Lam,Afghanistan,34.6683,70.2089,AFG
1004642532,Nili,Afghanistan,33.7218,66.1302,AFG
1004795942,Parun,Afghanistan,35.4206,70.9226,AFG
1004180853,Pul-e `Alam,Afghanistan,33.9953,69.0227,AFG
1004123527,Pul-e Khumri,Afghanistan,35.95,68.7,AFG
1004947440,Qal`ah-ye Now,Afghanistan,34.99,63.12,AFG
1004481163,Qal`ah-ye Zal,Afghanistan,37.015,68.4672,AFG
1004016690,Qalat,Afghanistan,32.1061,66.9069,AFG
1004047427,Sar-e Pul,Afghanistan,36.2214,65.9278,AFG
1004273142,Sharan,Afghanistan,33.1757,68.7304,AFG
1004805783,Shibirghan,Afghanistan,36.665,65.752,AFG
1004687194,Taluqan,Afghanistan,36.7167,69.5167,AFG
1004893931,Tarin Kot,Afghanistan,32.6333,65.8667,AFG
1004504986,Zaranj,Afghanistan,30.96,61.86,AFG
1004965319,Zarghun Shahr,Afghanistan,32.85,68.4167,AFG
1008251523,Bajram Curri,Albania,42.3582,20.076,ALB
1008709957,Ballsh,Albania,40.5991,19.7359,ALB
1008080226,Belsh,Albania,40.9833,19.8833,ALB
1008955153,Berat,Albania,40.7049,19.9497,ALB
1008832248,Bilisht,Albania,40.6275,20.99,ALB
1008809272,Bulqize,Albania,41.5,20.2167,ALB
1008883153,Burrel,Albania,41.6,20,ALB
1008302673,Cerrik,Albania,41.0333,19.9833,ALB
1008566247,Corovode,Albania,40.5042,20.2272,ALB
1008273800,Delvine,Albania,39.9494,20.0958,ALB
1008489904,Divjake,Albania,40.9964,19.5327,ALB
1008173690,Durres,Albania,41.3242,19.4558,ALB
1008409270,Elbasan,Albania,41.1125,20.0822,ALB
1008049831,Erseke,Albania,40.3333,20.6833,ALB
1008293317,Fier,Albania,40.7167,19.55,ALB
1008652935,Fushe-Kruje,Albania,41.4833,19.7167,ALB
1008368062,Gjirokaster,Albania,40.0758,20.1389,ALB
1008632813,Gramsh,Albania,40.8667,20.1833,ALB
1008148968,Kamez,Albania,41.3833,19.7667,ALB
1008475617,Kavaje,Albania,41.1833,19.55,ALB
1008361921,Korce,Albania,40.6167,20.7667,ALB
1008696208,Kruje,Albania,41.5178,19.7978,ALB
1008823158,Krume,Albania,42.1961,20.4146,ALB
1008520632,Kucove,Albania,40.8039,19.9144,ALB
1008649172,Kukes,Albania,42.0758,20.4231,ALB
1008762785,Lac,Albania,41.6353,19.7131,ALB
1008889153,Lezhe,Albania,41.7805,19.6434,ALB
1008483668,Libonik,Albania,40.75,20.7167,ALB
1008800835,Librazhd,Albania,41.1833,20.3167,ALB
1008639331,Librazhd-Qender,Albania,41.1969,20.3356,ALB
1008790888,Lushnje,Albania,40.9333,19.7,ALB
1008549519,Mamurras,Albania,41.5775,19.6922,ALB
1008184635,Patos,Albania,40.6841,19.6194,ALB
1008394656,Peqin,Albania,41.05,19.75,ALB
1008604833,Permet,Albania,40.2333,20.35,ALB
1008412550,Peshkopi,Albania,41.6831,20.4289,ALB
1008366566,Pogradec,Albania,40.9,20.65,ALB
1008654405,Prrenjas,Albania,41.0667,20.55,ALB
1008739218,Puke,Albania,42.05,19.9,ALB
1008765146,Roskovec,Albania,40.7375,19.7022,ALB
1008845269,Rreshen,Albania,41.7667,19.8833,ALB
1008422115,Rrogozhine,Albania,41.0761,19.6667,ALB
1008879697,Sarande,Albania,39.8833,20.0167,ALB
1008373202,Shengjin,Albania,41.8136,19.5939,ALB
1008348826,Shijak,Albania,41.3456,19.5672,ALB
1008977725,Shkoder,Albania,42.0667,19.5,ALB
1008647190,Sukth,Albania,41.3833,19.5333,ALB
1008683571,Tepelene,Albania,40.3,20.0167,ALB
1008162156,Tirana,Albania,41.33,19.82,ALB
1008394491,Vau i Dejes,Albania,42,19.6333,ALB
1008276050,Vlore,Albania,40.45,19.4833,ALB
1012074116,'Ain Abessa,Algeria,36.3,5.295,DZA
1012453452,'Ain Arnat,Algeria,36.1833,5.3167,DZA
1012746080,'Ain Azel,Algeria,35.8433,5.5219,DZA
1012595495,'Ain el Hammam,Algeria,36.5714,4.3097,DZA
1012529757,'Ain Roua,Algeria,36.3344,5.1806,DZA
1012262770,Abadla,Algeria,31.0167,-2.7333,DZA
1012479386,Abalessa,Algeria,22.89,4.8472,DZA
1012462113,Adrar,Algeria,27.8742,-0.2939,DZA
1012675026,Afir,Algeria,36.7676,3.7029,DZA
1012021090,Ain Beida,Algeria,35.7964,7.3928,DZA
1012656497,Ain Defla,Algeria,36.2583,1.9583,DZA
1012469007,Ain Oussera,Algeria,35.4489,2.9044,DZA
1012884513,Ain Sefra,Algeria,32.75,-0.5833,DZA
1012763655,Ain Temouchent,Algeria,35.3044,-1.14,DZA
1012695288,Ain Zaouia,Algeria,36.5483,3.8942,DZA
1012471822,Ait Bou Madhi,Algeria,36.5009,4.2,DZA
1012677951,Ait Yaich,Algeria,36.5811,4.3303,DZA
1012950888,Akbou,Algeria,36.4667,4.5333,DZA
1012973369,Algiers,Algeria,36.7764,3.0586,DZA
1012045463,Amalou,Algeria,36.4778,4.6333,DZA
1012766595,Amoucha,Algeria,36.388,5.4108,DZA
1012600001,Annaba,Algeria,36.9,7.7667,DZA
1012376964,Aomar,Algeria,36.5,3.7833,DZA
1012971347,Arbaoun,Algeria,36.4667,5.65,DZA
1012696122,Arhribs,Algeria,36.8022,4.3227,DZA
1012087552,Azazga,Algeria,36.7453,4.3711,DZA
1012290725,Azeffoun,Algeria,36.8961,4.4204,DZA
1012969588,Azzaba,Algeria,36.7333,7.1,DZA
1012093229,Batna,Algeria,35.55,6.1667,DZA
1012371820,Bechar,Algeria,31.6333,-2.2,DZA
1012563877,Bechloul,Algeria,36.3167,4.0667,DZA
1012140298,Bejaia,Algeria,36.7511,5.0642,DZA
1012044380,Ben N'Choud,Algeria,36.8624,3.8806,DZA
1012048018,Ben Nasseur,Algeria,33.1107,6.441,DZA
1012633792,Beni Abbes,Algeria,30.08,-2.1,DZA
1012574444,Beni Aissi,Algeria,29.6,0.25,DZA
1012420167,Beni Amrane,Algeria,36.6686,3.5922,DZA
1012742443,Beni Douala,Algeria,36.6167,4.0667,DZA
1012660842,Beni Fouda,Algeria,36.2861,5.6071,DZA
1012327989,Beni Ounif,Algeria,32.05,-1.25,DZA
1012249358,Bir Ghbalou,Algeria,36.2631,3.5866,DZA
1012947247,Biskra,Algeria,34.85,5.7333,DZA
1012045589,Blida,Algeria,36.4722,2.8333,DZA
1012740129,Boghni,Algeria,36.5437,3.9523,DZA
1012016677,Bordj Bou Arreridj,Algeria,36.0667,4.7667,DZA
1012287430,Bordj Menaiel,Algeria,36.7417,3.7231,DZA
1012945794,Bordj Mokhtar,Algeria,21.3289,0.9542,DZA
1012057188,Bordj Okhriss,Algeria,36.0833,3.9667,DZA
1012718665,Bou Nouh,Algeria,36.5,3.9333,DZA
1012931222,Bou Saada,Algeria,35.2083,4.1739,DZA
1012379618,Boudjima,Algeria,36.814,4.1588,DZA
1012512259,Boufarik,Algeria,36.575,2.9097,DZA
1012006499,Bouira,Algeria,36.3783,3.8925,DZA
1012066745,Boukhralfa,Algeria,36.6144,5.0872,DZA
1012627486,Boumerdes,Algeria,36.7594,3.4728,DZA
1012755999,Charouine,Algeria,29.0167,-0.2667,DZA
1012772239,Chlef,Algeria,36.1647,1.3317,DZA
1012035343,Chorfa,Algeria,36.3617,4.3307,DZA
1012275076,Constantine,Algeria,36.365,6.6147,DZA
1012717910,Dellys,Algeria,36.9167,3.8833,DZA
1012151355,Didouche Mourad,Algeria,36.4484,6.6339,DZA
1012827195,Djanet,Algeria,24.555,9.4853,DZA
1012268984,Djelfa,Algeria,34.6667,3.25,DZA
1012989318,Djinet,Algeria,36.877,3.7231,DZA
1012011041,Draa Ben Khedda,Algeria,36.7349,3.9556,DZA
1012563094,Draa el Mizan,Algeria,36.5333,3.8333,DZA
1012383350,El Adjiba,Algeria,36.3333,4.15,DZA
1012906892,El Bayadh,Algeria,33.6831,1.0192,DZA
1012292620,El Eulma,Algeria,36.1528,5.69,DZA
1012834851,El Golea,Algeria,30.6,2.9,DZA
1012706441,El Main,Algeria,36.3667,4.75,DZA
1012153214,El Meghaier,Algeria,33.9506,5.9242,DZA
1012706826,El Milia,Algeria,36.75,6.2667,DZA
1012148937,El Oued,Algeria,33.3683,6.8675,DZA
1012205687,El Tarf,Algeria,36.7669,8.3136,DZA
1012779789,Es Senia,Algeria,35.6478,-0.6239,DZA
1012372550,Freha,Algeria,36.762,4.3163,DZA
1012074690,Ghardaia,Algeria,32.4833,3.6667,DZA
1012266321,Guelma,Algeria,36.4619,7.4258,DZA
1012339655,Hassi Messaoud,Algeria,31.7,6.0667,DZA
1012221429,I-n-Amenas,Algeria,28.05,9.55,DZA
1012162135,I-n-Amguel,Algeria,23.6936,5.1647,DZA
1012201146,I-n-Salah,Algeria,27.1936,2.4606,DZA
1012745524,Iferhounene,Algeria,36.5338,4.3701,DZA
1012938624,Ifigha,Algeria,36.6667,4.4167,DZA
1012326451,Iflissen,Algeria,36.8636,4.2203,DZA
1012499058,Illizi,Algeria,26.508,8.4829,DZA
1012000031,In Guezzam,Algeria,19.5686,5.7722,DZA
1012782547,Jijel,Algeria,36.8206,5.7667,DZA
1012278992,Kadiria,Algeria,36.5333,3.6833,DZA
1012495148,Khenchela,Algeria,35.4167,7.1333,DZA
1012117061,L'Arbaa Nait Irathen,Algeria,36.6367,4.2067,DZA
1012233848,Laghouat,Algeria,33.8,2.865,DZA
1012284313,Lakhdaria,Algeria,36.6167,3.5833,DZA
1012857730,M'Sila,Algeria,35.7058,4.5419,DZA
1012786926,Makouda,Algeria,36.7909,4.0669,DZA
1012738269,Mascara,Algeria,35.4,0.1333,DZA
1012958256,Mecheria,Algeria,33.55,-0.2833,DZA
1012201497,Mechtras,Algeria,36.5448,4.0049,DZA
1012758282,Medea,Algeria,36.2675,2.75,DZA
1012384530,Mekla,Algeria,36.6876,4.2681,DZA
1012278908,Messaad,Algeria,34.1542,3.4969,DZA
1012656063,Mila,Algeria,36.4481,6.2622,DZA
1012061703,Mostaganem,Algeria,35.9333,0.0903,DZA
1012667528,Moudjbara,Algeria,34.5037,3.4704,DZA
1012850542,Naama,Algeria,33.2678,-0.3111,DZA
1012065880,Naciria,Algeria,36.75,3.8333,DZA
1012126319,Oran,Algeria,35.6969,-0.6331,DZA
1012312650,Ouadhia,Algeria,36.55,4.0833,DZA
1012425687,Ouargla,Algeria,31.95,5.3167,DZA
1012109892,Ouled Djellal,Algeria,34.4167,5.0667,DZA
1012623458,Ouled Moussa,Algeria,36.6831,3.3681,DZA
1012727170,Ouled Rached,Algeria,36.2119,4.1106,DZA
1012958880,Oum el Bouaghi,Algeria,35.8706,7.115,DZA
1012709576,Reggane,Algeria,26.7,0.1667,DZA
1012939885,Relizane,Algeria,35.7372,0.5558,DZA
1012285874,Saida,Algeria,34.8303,0.1517,DZA
1012996789,Sali,Algeria,26.9833,-0.0333,DZA
1012348181,Seddouk Oufella,Algeria,36.6061,4.6389,DZA
1012981116,Setif,Algeria,36.19,5.41,DZA
1012130143,Si Mustapha,Algeria,36.7247,3.6153,DZA
1012123414,Sidi Bel Abbes,Algeria,35.2,-0.6333,DZA
1012618002,Sidi Daoud,Algeria,36.85,3.85,DZA
1012820383,Sidi Namane,Algeria,36.7581,3.9839,DZA
1012619903,Skikda,Algeria,36.8667,6.9,DZA
1012240654,Souama,Algeria,36.6417,4.3416,DZA
1012419619,Souk Ahras,Algeria,36.2864,7.9511,DZA
1012532288,Souk el Had,Algeria,36.6909,3.5889,DZA
1012378735,Souma,Algeria,36.5183,2.9053,DZA
1012245949,Tadmait,Algeria,36.7427,3.9019,DZA
1012858445,Takerbouzt,Algeria,36.418,4.3428,DZA
1012098651,Tala Yfassene,Algeria,36.4583,5.0889,DZA
1012765474,Tamanrasset,Algeria,22.785,5.5228,DZA
1012841664,Taourga,Algeria,36.7938,3.9463,DZA
1012240413,Tassamert,Algeria,36.2693,4.823,DZA
1012196375,Tebessa,Algeria,35.4,8.1167,DZA
1012908635,Thenia,Algeria,36.7278,3.5539,DZA
1012785868,Tiaret,Algeria,35.3667,1.3167,DZA
1012798792,Tichi,Algeria,36.6675,5.1601,DZA
1012591585,Tifra,Algeria,36.6664,4.6972,DZA
1012150824,Tigzirt,Algeria,36.8931,4.1225,DZA
1012351010,Timimoun,Algeria,29.25,0.2333,DZA
1012767619,Timizart,Algeria,36.8,4.2667,DZA
1012254407,Timoktene,Algeria,27.0217,1.015,DZA
1012450434,Tindouf,Algeria,27.6753,-8.1286,DZA
1012866308,Tipasa,Algeria,36.5942,2.443,DZA
1012932001,Tirmitine,Algeria,36.6618,3.9848,DZA
1012743339,Tissemsilt,Algeria,35.6072,1.8106,DZA
1012794312,Tizi Gheniff,Algeria,36.5891,3.7678,DZA
1012126997,Tizi Ouzou,Algeria,36.7169,4.0497,DZA
1012966884,Tizi Rached,Algeria,36.6718,4.1918,DZA
1012925118,Tizi-n-Bechar,Algeria,36.4311,5.36,DZA
1012925920,Tizi-n-Tleta,Algeria,36.5457,4.0571,DZA
1012978325,Tlemcen,Algeria,34.8828,-1.3167,DZA
1012114797,Toudja,Algeria,36.7586,4.8933,DZA
1012546670,Touggourt,Algeria,33.1,6.0667,DZA
1012612535,Yakouren,Algeria,36.7348,4.4386,DZA
1016976740,Pago Pago,American Samoa,-14.274,-170.7046,ASM
1020828846,Andorra la Vella,Andorra,42.5,1.5,AND
1020594179,Canillo,Andorra,42.5664,1.6009,AND
1020417470,Encamp,Andorra,42.5361,1.5828,AND
1020008674,Escaldes-Engordany,Andorra,42.5089,1.5408,AND
1020543453,La Massana,Andorra,42.5442,1.5164,AND
1020655238,Ordino,Andorra,42.555,1.5331,AND
1020885733,Sant Julia de Loria,Andorra,42.47,1.49,AND
1024029875,Alto-Cuilo,Angola,-10.05,19.5167,AGO
1024609563,Ambriz,Angola,-7.85,13.1167,AGO
1024743438,Baia Farta,Angola,-12.6128,13.1987,AGO
1024668438,Bala Cangamba,Angola,-13.6996,19.86,AGO
1024251027,Balombo,Angola,-12.35,14.7667,AGO
1024937810,Barra do Dande,Angola,-8.4728,13.3731,AGO
1024196826,Belas,Angola,-9.0689,13.1608,AGO
1024141961,Benguela,Angola,-12.55,13.4167,AGO
1024922883,Bocoio,Angola,-12.4667,14.1333,AGO
1024319966,Bolongongo,Angola,-8.4667,15.25,AGO
1024474012,Cabinda,Angola,-5.5667,12.2,AGO
1024592975,Cacolo,Angola,-10.1365,19.2865,AGO
1024356360,Cacongo,Angola,-5.2333,12.1333,AGO
1024559448,Cacuaco,Angola,-8.7833,13.3667,AGO
1024638606,Cahama,Angola,-16.2833,14.3167,AGO
1024891825,Caimbambo,Angola,-12.9,14.0833,AGO
1024822780,Calenga,Angola,-11.3196,16.2,AGO
1024545873,Calulo,Angola,-9.9996,14.9,AGO
1024240126,Caluquembe,Angola,-13.9208,14.5347,AGO
1024701540,Camabatela,Angola,-8.1833,15.3667,AGO
1024037086,Camacupa,Angola,-12.0167,17.4833,AGO
1024312565,Cambambe,Angola,-9.7431,14.4914,AGO
1024864144,Capenda Camulemba,Angola,-9.4233,18.4328,AGO
1024511668,Cassongue,Angola,-11.8333,15,AGO
1024994288,Catabola,Angola,-12.1167,17.3,AGO
1024321158,Catape,Angola,-13.7667,15.0833,AGO
1024414170,Catchiungo,Angola,-12.5667,16.2333,AGO
1024821574,Catumbela,Angola,-12.4167,13.5333,AGO
1024050171,Caxito,Angola,-8.5785,13.6642,AGO
1024334740,Cazombo,Angola,-11.9058,22.9217,AGO
1024009942,Chibemba,Angola,-15.7355,13.8905,AGO
1024017930,Chibia,Angola,-15.1833,13.7,AGO
1024892795,Chicomba,Angola,-14.1333,14.9167,AGO
1024191137,Chinguar,Angola,-12.55,16.3333,AGO
1024089157,Chipindo,Angola,-13.8244,15.8,AGO
1024103269,Chitembo,Angola,-13.5167,16.7667,AGO
1024105319,Chongoroi,Angola,-13.5667,13.95,AGO
1024402215,Conda,Angola,-11.1667,14.5,AGO
1024514740,Cuango,Angola,-9.1444,18.0464,AGO
1024580158,Cubal,Angola,-13.1117,14.3672,AGO
1024135358,Cuchi,Angola,-14.6372,16.9611,AGO
1024686026,Cuemba,Angola,-12.15,18.0833,AGO
1024939858,Cuito,Angola,-12.3833,16.9333,AGO
1024195525,Cuito Cuanavale,Angola,-15.1639,19.1731,AGO
1024323066,Dondo,Angola,-9.6942,14.4228,AGO
1024121799,Dundo,Angola,-7.38,20.83,AGO
1024159015,Gabela,Angola,-10.85,14.3667,AGO
1024320952,Ganda,Angola,-13.0167,14.6333,AGO
1024079828,Huambo,Angola,-12.7667,15.7333,AGO
1024063224,Humpata,Angola,-15.0725,13.3678,AGO
1024458480,Kuvango,Angola,-14.4667,16.3,AGO
1024128946,Lobito,Angola,-12.3597,13.5308,AGO
1024280825,Londuimbali,Angola,-12.2419,15.3133,AGO
1024081092,Longonjo,Angola,-12.9067,15.1864,AGO
1024949724,Luanda,Angola,-8.8383,13.2344,AGO
1024699465,Luau,Angola,-10.7,22.2333,AGO
1024568664,Lubalo,Angola,-9.15,19.2833,AGO
1024669127,Lubango,Angola,-14.9167,13.5,AGO
1024056286,Lucapa,Angola,-8.4228,20.7393,AGO
1024283760,Luena,Angola,-11.79,19.9,AGO
1024774947,Malanje,Angola,-9.5469,16.3387,AGO
1024585059,Mavinga,Angola,-15.7895,20.36,AGO
1024532464,Mbanza Kongo,Angola,-6.2667,14.25,AGO
1024725650,Menongue,Angola,-14.6556,17.6842,AGO
1024785067,Mocamedes,Angola,-15.1953,12.1508,AGO
1024646532,Muconda,Angola,-10.6,21.3167,AGO
1024065318,Mungo,Angola,-11.6667,16.1667,AGO
1024843393,Namacunde,Angola,-17.3,15.85,AGO
1024536521,Nambuangongo,Angola,-8.0483,14.3372,AGO
1024645515,Ndalatando,Angola,-9.3,14.9167,AGO
1024911597,Ndjamba,Angola,-14.7,16.0667,AGO
1024978551,Negage,Angola,-7.7667,15.2667,AGO
1024025450,Nzeto,Angola,-7.229,12.865,AGO
1024504085,Ondjiva,Angola,-17.0667,15.7333,AGO
1024489244,PortoAlexandre,Angola,-15.8032,11.8459,AGO
1024818756,Porto Amboim,Angola,-10.7183,13.75,AGO
1024007950,Quibala,Angola,-10.7311,15.0003,AGO
1024011632,Quilenda,Angola,-10.6333,14.3333,AGO
1024895987,Quilengues,Angola,-14.0814,14.0764,AGO
1024929138,Quipungo,Angola,-14.8167,14.5167,AGO
1024326839,Saurimo,Angola,-9.6589,20.3934,AGO
1024903782,Soio,Angola,-6.1333,12.3667,AGO
1024923411,Songo,Angola,-7.3496,14.85,AGO
1024297937,Sumbe,Angola,-11.2052,13.8417,AGO
1024988332,Talatona,Angola,-8.9167,13.1833,AGO
1024902504,Tchindjendje,Angola,-12.8167,14.9333,AGO
1024158837,Tchitado,Angola,-17.3196,13.92,AGO
1024883433,Tchitato,Angola,-7.345,20.8198,AGO
1024677127,Uacu Cungo,Angola,-11.3583,15.1194,AGO
1024023900,Ucuma,Angola,-12.85,15.0667,AGO
1024666275,Uige,Angola,-7.6087,15.0613,AGO
1024863343,Vila Teixeira da Silva,Angola,-12.1958,15.8556,AGO
1024323582,Xangongo,Angola,-16.7467,14.9747,AGO
1660698387,The Valley,Anguilla,18.2167,-63.05,AIA
1028912067,Saint John's,Antigua And Barbuda,17.1211,-61.8447,ATG
1032997640,Abra Pampa,Argentina,-22.7167,-65.7,ARG
1032827397,Adrogue,Argentina,-34.8,-58.3833,ARG
1032281187,Aldo Bonzi,Argentina,-34.7083,-58.5181,ARG
1032144191,Allen,Argentina,-38.9772,-67.8272,ARG
1032411567,Alta Gracia,Argentina,-31.6667,-64.4333,ARG
1032532362,Alto Rio Senguer,Argentina,-45.0419,-70.8234,ARG
1032511298,Anatuya,Argentina,-28.4667,-62.8333,ARG
1032611762,Aristobulo del Valle,Argentina,-27.0952,-54.897,ARG
1032420901,Armstrong,Argentina,-32.7819,-61.6019,ARG
1032478683,Avellaneda,Argentina,-34.6625,-58.3678,ARG
1032387319,Avellaneda,Argentina,-29.1175,-59.6583,ARG
1032171567,Ayacucho,Argentina,-37.1525,-58.4882,ARG
1032652005,Azul,Argentina,-36.7833,-59.85,ARG
1032795766,Bahia Blanca,Argentina,-38.7167,-62.2667,ARG
1032847478,Balcarce,Argentina,-37.8464,-58.2556,ARG
1032997685,Banfield,Argentina,-34.75,-58.3833,ARG
1032310302,Baradero,Argentina,-33.8,-59.5167,ARG
1032969950,Belen,Argentina,-27.6496,-67.0333,ARG
1032028928,Bell Ville,Argentina,-32.6333,-62.6833,ARG
1032720412,Bella Vista,Argentina,-34.5333,-58.6667,ARG
1032382110,Benito Juarez,Argentina,-37.6833,-59.8,ARG
1032535314,Berazategui,Argentina,-34.7679,-58.2133,ARG
1032030395,Bernal,Argentina,-34.7,-58.2833,ARG
1032393908,Bialet Masse,Argentina,-31.3214,-64.4694,ARG
1032509795,Bragado,Argentina,-35.1167,-60.5,ARG
1032251860,Brandsen,Argentina,-35.1667,-58.2167,ARG
1032717330,Buenos Aires,Argentina,-34.5997,-58.3819,ARG
1032073218,Burzaco,Argentina,-34.8167,-58.3667,ARG
1032961594,Cafayate,Argentina,-26.07,-65.98,ARG
1032563209,Caleta Olivia,Argentina,-46.4333,-67.5333,ARG
1032345885,Campana,Argentina,-34.1667,-58.9167,ARG
1032264958,Canada de Gomez,Argentina,-32.8167,-61.4,ARG
1032258122,Capilla del Monte,Argentina,-30.85,-64.5167,ARG
1032901343,Capitan Bermudez,Argentina,-32.8167,-60.7167,ARG
1032358026,Carcarana,Argentina,-32.85,-61.15,ARG
1032595269,Carhue,Argentina,-37.1667,-62.7333,ARG
1032088260,Carmen de Areco,Argentina,-34.3833,-59.8167,ARG
1032500630,Caseros,Argentina,-34.6167,-58.5333,ARG
1032000005,Casilda,Argentina,-33.0442,-61.1681,ARG
1032123891,Castelar,Argentina,-34.65,-58.65,ARG
1032193694,Castelli,Argentina,-25.95,-60.6167,ARG
1032260908,Catamarca,Argentina,-28.4686,-65.7792,ARG
1032975217,Catriel,Argentina,-37.8778,-67.7917,ARG
1032495336,Centenario,Argentina,-38.8167,-68.1333,ARG
1032855291,Ceres,Argentina,-29.8833,-61.95,ARG
1032917216,Cerrillos,Argentina,-24.9,-65.4833,ARG
1032210547,Chacabuco,Argentina,-34.65,-60.49,ARG
1032147348,Chajari,Argentina,-30.7667,-57.9833,ARG
1032026963,Chamical,Argentina,-30.3592,-66.3133,ARG
1032241417,Charata,Argentina,-27.2144,-61.1881,ARG
1032352363,Chascomus,Argentina,-35.575,-58.0089,ARG
1032137147,Chepes,Argentina,-31.35,-66.6,ARG
1032078195,Chilecito,Argentina,-29.1667,-67.5,ARG
1032269915,Chivilcoy,Argentina,-34.9,-60.0167,ARG
1032421959,Choele Choel,Argentina,-39.2858,-65.6542,ARG
1032817076,Chos Malal,Argentina,-37.3833,-70.2667,ARG
1032994295,Chumbicha,Argentina,-28.8666,-66.2333,ARG
1032470108,Cinco Saltos,Argentina,-38.8167,-68.0667,ARG
1032336348,Ciudad General Belgrano,Argentina,-34.7261,-58.5289,ARG
1032656120,Colon,Argentina,-32.2241,-58.1419,ARG
1032806030,Comallo,Argentina,-41.0333,-70.2667,ARG
1032594164,Comandante Fontana,Argentina,-25.3333,-59.6833,ARG
1032946044,Comandante Luis Piedra Buena,Argentina,-49.983,-68.91,ARG
1032042035,Comodoro Rivadavia,Argentina,-45.8667,-67.5,ARG
1032999059,Concepcion del Uruguay,Argentina,-32.4833,-58.2333,ARG
1032923957,Concordia,Argentina,-31.3922,-58.0169,ARG
1032803249,Cordoba,Argentina,-31.4167,-64.1833,ARG
1032005345,Coronda,Argentina,-31.9667,-60.9167,ARG
1032800825,Coronel Dorrego,Argentina,-38.7,-61.2667,ARG
1032444981,Coronel Suarez,Argentina,-37.4667,-61.9333,ARG
1032324190,Corral de Bustos,Argentina,-33.2833,-62.2,ARG
1032173097,Corrientes,Argentina,-27.4833,-58.8167,ARG
1032976495,Cruz del Eje,Argentina,-30.7333,-64.8,ARG
1032070013,Cutral-Co,Argentina,-38.9333,-69.2333,ARG
1032968004,Darregueira,Argentina,-37.6996,-63.1666,ARG
1032778928,Dean Funes,Argentina,-30.4333,-64.35,ARG
1032579921,Dock Sur,Argentina,-34.6417,-58.3478,ARG
1032650497,Dolores,Argentina,-36.3132,-57.6792,ARG
1032701626,Don Bosco,Argentina,-34.7,-58.2833,ARG
1032210475,El Calafate,Argentina,-50.3395,-72.2649,ARG
1032286116,El Maiten,Argentina,-42.05,-71.1667,ARG
1032391611,El Talar de Pacheco,Argentina,-34.4719,-58.655,ARG
1032056096,Eldorado,Argentina,-26.4,-54.6333,ARG
1032017911,Embalse,Argentina,-32.1833,-64.4167,ARG
1032763447,Esperanza,Argentina,-31.4489,-60.9317,ARG
1032489067,Esquel,Argentina,-42.9,-71.3167,ARG
1032069640,Esteban Echeverria,Argentina,-34.8167,-58.4667,ARG
1032462589,Ezpeleta,Argentina,-34.7517,-58.2344,ARG
1032860100,Federacion,Argentina,-30.9833,-57.9167,ARG
1032869120,Firmat,Argentina,-33.45,-61.4833,ARG
1032730758,Florencio Varela,Argentina,-34.8167,-58.2833,ARG
1032021324,Florencio Varela,Argentina,-34.8167,-58.3833,ARG
1032802536,Formosa,Argentina,-26.1847,-58.1758,ARG
1032928868,Fray Luis A. Beltran,Argentina,-32.7833,-60.7333,ARG
1032077058,Frias,Argentina,-28.6496,-65.15,ARG
1032791892,Frontera,Argentina,-31.4278,-62.0619,ARG
1032815504,Gastre,Argentina,-42.2667,-69.2167,ARG
1032658385,General Conesa,Argentina,-40.1,-64.4333,ARG
1032325674,General Deheza,Argentina,-32.7564,-63.7889,ARG
1032534261,General Fernandez Oro,Argentina,-38.95,-67.9167,ARG
1032481870,General Juan Madariaga,Argentina,-37.0167,-57.1333,ARG
1032232869,General Levalle,Argentina,-34.0167,-63.9167,ARG
1032716507,General Martin Miguel de Guemes,Argentina,-24.6667,-65.05,ARG
1032081531,General Pico,Argentina,-35.6587,-63.7577,ARG
1032829704,General Roca,Argentina,-39.0333,-67.5833,ARG
1032739359,Gobernador Galvez,Argentina,-33.0251,-60.6337,ARG
1032720049,Gobernador Gregores,Argentina,-48.7509,-70.2485,ARG
1032263200,Godoy Cruz,Argentina,-32.9167,-68.8333,ARG
1032883563,Gonzalez Catan,Argentina,-34.7708,-58.6464,ARG
1032251925,Goya,Argentina,-29.1333,-59.25,ARG
1032975920,Granadero Baigorria,Argentina,-32.85,-60.7,ARG
1032077195,Gualeguay,Argentina,-33.15,-59.3167,ARG
1032523704,Gualeguaychu,Argentina,-33.0078,-58.5111,ARG
1032803323,Haedo,Argentina,-34.65,-58.6,ARG
1032466357,Helvecia,Argentina,-31.1,-60.0833,ARG
1032904210,Humahuaca,Argentina,-23.2054,-65.3505,ARG
1032585569,Ingeniero Guillermo N. Juarez,Argentina,-23.9,-61.85,ARG
1032402027,Ingeniero Jacobacci,Argentina,-41.3,-69.5833,ARG
1032873580,Ingeniero Luis A. Huergo,Argentina,-39.0833,-67.2333,ARG
1032715964,Isidro Casanova,Argentina,-34.7,-58.5833,ARG
1032997137,Ituzaingo,Argentina,-34.6582,-58.6672,ARG
1032875104,Jesus Maria,Argentina,-30.9817,-64.0942,ARG
1032795161,Jesus Nazareno,Argentina,-32.9111,-68.79,ARG
1032690861,Joaquin V. Gonzalez,Argentina,-25.1171,-64.1247,ARG
1032741145,Jose C. Paz,Argentina,-34.5167,-58.7667,ARG
1032337881,Jose Maria Ezeiza,Argentina,-34.8333,-58.5167,ARG
1032126414,Jose Marmol,Argentina,-34.7833,-58.3667,ARG
1032976047,Junin,Argentina,-34.5939,-60.9464,ARG
1032993092,Junin de los Andes,Argentina,-39.9506,-71.0694,ARG
1032439298,Justiniano Posse,Argentina,-32.8833,-62.6667,ARG
1032317566,La Banda,Argentina,-27.7333,-64.25,ARG
1032927400,La Calera,Argentina,-31.3439,-64.3353,ARG
1032992119,La Carlota,Argentina,-33.4179,-63.2935,ARG
1032413311,La Falda,Argentina,-31.0833,-64.5,ARG
1032294439,La Paz,Argentina,-33.4661,-67.55,ARG
1032403831,La Plata,Argentina,-34.9333,-57.95,ARG
1032628832,La Quiaca,Argentina,-22.1056,-65.6,ARG
1032013959,La Reja,Argentina,-34.6394,-58.8283,ARG
1032864257,La Rioja,Argentina,-29.4131,-66.8558,ARG
1032996866,Laboulaye,Argentina,-34.1267,-63.3911,ARG
1032911063,Laguna Larga,Argentina,-31.7764,-63.8011,ARG
1032996959,Laguna Paiva,Argentina,-31.3039,-60.6589,ARG
1032498907,Lamarque,Argentina,-39.4236,-65.7,ARG
1032009573,Lanus,Argentina,-34.7,-58.4,ARG
1032804706,Laprida,Argentina,-37.5333,-60.8167,ARG
1032781204,Las Heras,Argentina,-32.825,-68.8017,ARG
1032657206,Las Heras,Argentina,-46.55,-68.95,ARG
1032092474,Las Lajas,Argentina,-38.5208,-70.3667,ARG
1032153825,Las Lomitas,Argentina,-24.7072,-60.5944,ARG
1032630210,Las Parejas,Argentina,-32.6833,-61.5333,ARG
1032664852,Leones,Argentina,-32.6617,-62.2967,ARG
1032241314,Libertad,Argentina,-34.6833,-58.6833,ARG
1032649273,Libertador General San Martin,Argentina,-23.8,-64.7833,ARG
1032332688,Lincoln,Argentina,-34.85,-61.5167,ARG
1032314483,Lobos,Argentina,-35.1864,-59.0961,ARG
1032623086,Lomas de Zamora,Argentina,-34.7667,-58.4,ARG
1032639381,Lomas del Mirador,Argentina,-34.6667,-58.5297,ARG
1032203390,Longchamps,Argentina,-34.8596,-58.387,ARG
1032336288,Los Blancos,Argentina,-23.5996,-62.6,ARG
1032296125,Los Menucos,Argentina,-40.8424,-68.0896,ARG
1032236823,Los Polvorines,Argentina,-34.5,-58.7,ARG
1032704827,Lujan,Argentina,-34.5703,-59.105,ARG
1032767915,Macachin,Argentina,-37.1377,-63.662,ARG
1032824937,Malargue,Argentina,-35.4745,-69.5853,ARG
1032010904,Malvinas Argentinas,Argentina,-31.3697,-64.0531,ARG
1032066406,Mar de Ajo,Argentina,-36.7162,-56.6766,ARG
1032456103,Mar del Plata,Argentina,-38,-57.55,ARG
1032677394,Marcos Juarez,Argentina,-32.7,-62.1,ARG
1032433516,Mendoza,Argentina,-32.8833,-68.8333,ARG
1032994289,Mercedes,Argentina,-34.65,-59.4333,ARG
1032972413,Mercedes,Argentina,-29.1796,-58.08,ARG
1032232613,Merlo,Argentina,-34.6653,-58.7275,ARG
1032241641,Mina Clavero,Argentina,-31.7239,-65.005,ARG
1032641177,Monte Chingolo,Argentina,-34.7333,-58.35,ARG
1032121160,Monte Cristo,Argentina,-31.3431,-63.9444,ARG
1032834102,Monte Quemado,Argentina,-25.8072,-62.8278,ARG
1032773254,Moron,Argentina,-34.65,-58.6167,ARG
1032318811,Munro,Argentina,-34.5333,-58.5167,ARG
1032624527,Necochea,Argentina,-38.55,-58.7333,ARG
1032525768,Neuquen,Argentina,-38.9573,-68.0455,ARG
1032287957,Nueve de Julio,Argentina,-35.45,-60.8833,ARG
1032099071,Obera,Argentina,-27.4833,-55.1333,ARG
1032373353,Olavarria,Argentina,-36.9,-60.3333,ARG
1032905249,Oliva,Argentina,-32.0416,-63.5698,ARG
1032751442,Oncativo,Argentina,-31.9134,-63.6818,ARG
1032896072,Pampa del Infierno,Argentina,-26.5167,-61.1667,ARG
1032266693,Parana,Argentina,-31.7444,-60.5175,ARG
1032549913,Pedro Luro,Argentina,-39.5,-62.6833,ARG
1032214150,Pergamino,Argentina,-33.8836,-60.5669,ARG
1032891854,Perito Moreno,Argentina,-46.59,-70.9297,ARG
1032143115,Perugorria,Argentina,-29.3408,-58.6083,ARG
1032509324,Pico Truncado,Argentina,-46.8,-67.9667,ARG
1032712196,Pilar,Argentina,-34.4588,-58.9142,ARG
1032950633,Pinamar,Argentina,-37.1,-56.85,ARG
1032678166,Plaza Huincul,Argentina,-38.9338,-69.1987,ARG
1032684946,Plottier,Argentina,-38.95,-68.2333,ARG
1032970696,Posadas,Argentina,-27.3667,-55.8969,ARG
1032464495,Presidencia Roque Saenz Pena,Argentina,-26.7833,-60.45,ARG
1032537209,Puerto Deseado,Argentina,-47.75,-65.9167,ARG
1032351657,Puerto Madryn,Argentina,-42.773,-65.0366,ARG
1032928261,Puerto San Martin,Argentina,-32.7167,-60.7333,ARG
1032629961,Punta Alta,Argentina,-38.88,-62.075,ARG
1032880202,Quilmes,Argentina,-34.7167,-58.2667,ARG
1032850983,Rada Tilly,Argentina,-45.9257,-67.5526,ARG
1032898708,Rafael Calzada,Argentina,-34.7833,-58.3667,ARG
1032812310,Rafael Castillo,Argentina,-34.7167,-58.6167,ARG
1032181625,Rafaela,Argentina,-31.2667,-61.4833,ARG
1032425368,Ramos Mejia,Argentina,-34.65,-58.5667,ARG
1032302344,Rawson,Argentina,-43.3,-65.1,ARG
1032927391,Reconquista,Argentina,-29.1443,-59.6438,ARG
1032150292,Remedios de Escalada,Argentina,-34.7167,-58.4,ARG
1032720891,Resistencia,Argentina,-27.4514,-58.9867,ARG
1032429190,Rinconada,Argentina,-22.4403,-66.1672,ARG
1032592194,Rio Colorado,Argentina,-38.9908,-64.0958,ARG
1032552145,Rio Cuarto,Argentina,-33.123,-64.3478,ARG
1032471024,Rio Gallegos,Argentina,-51.6333,-69.2333,ARG
1032824067,Rio Grande,Argentina,-53.7914,-67.699,ARG
1032155044,Rio Mayo,Argentina,-45.687,-70.26,ARG
1032915511,Rio Primero,Argentina,-31.3333,-63.6167,ARG
1032477999,Rio Segundo,Argentina,-31.6526,-63.9099,ARG
1032103221,Rio Tercero,Argentina,-32.1768,-64.113,ARG
1032937217,Rodeo,Argentina,-30.2156,-69.14,ARG
1032770677,Rosario,Argentina,-32.9575,-60.6394,ARG
1032485062,Rosario del Tala,Argentina,-32.3008,-59.1389,ARG
1032127696,Rufino,Argentina,-34.2683,-62.7125,ARG
1032926124,Salta,Argentina,-24.7883,-65.4106,ARG
1032191344,San Antonio de los Cobres,Argentina,-24.2256,-66.3192,ARG
1032154473,San Antonio Oeste,Argentina,-40.7333,-64.95,ARG
1032111842,San Carlos de Bariloche,Argentina,-41.15,-71.3,ARG
1032634720,San Cristobal,Argentina,-30.3105,-61.2372,ARG
1032491643,San Francisco,Argentina,-31.4356,-62.0714,ARG
1032776804,San Francisco Solano,Argentina,-34.7667,-58.3167,ARG
1032862666,San Isidro,Argentina,-34.4667,-58.5167,ARG
1032258062,San Javier,Argentina,-30.5833,-59.95,ARG
1032869625,San Juan,Argentina,-31.5375,-68.5364,ARG
1032464702,San Julian,Argentina,-49.307,-67.7298,ARG
1032899295,San Justo,Argentina,-34.6833,-58.55,ARG
1032734419,San Justo,Argentina,-30.7833,-60.5833,ARG
1032610376,San Lorenzo,Argentina,-28.12,-58.77,ARG
1032547434,San Luis,Argentina,-33.2994,-66.3392,ARG
1032297325,San Martin,Argentina,-33.0806,-68.4706,ARG
1032807074,San Martin de los Andes,Argentina,-40.1667,-71.35,ARG
1032038706,San Miguel,Argentina,-34.5333,-58.7167,ARG
1032233996,San Miguel de Tucuman,Argentina,-26.8167,-65.2167,ARG
1032067887,San Nicolas de los Arroyos,Argentina,-33.3333,-60.2167,ARG
1032823743,San Pedro,Argentina,-24.2196,-64.87,ARG
1032604675,San Pedro,Argentina,-33.6794,-59.6669,ARG
1032221516,San Rafael,Argentina,-34.6175,-68.3356,ARG
1032020207,San Ramon de la Nueva Oran,Argentina,-23.1361,-64.3222,ARG
1032064102,San Salvador,Argentina,-31.6167,-58.5,ARG
1032815808,San Salvador de Jujuy,Argentina,-24.1856,-65.2994,ARG
1032467373,Santa Elena,Argentina,-30.95,-59.8,ARG
1032817575,Santa Fe,Argentina,-31.6333,-60.7,ARG
1032055755,Santa Maria,Argentina,-26.6833,-66.0333,ARG
1032132957,Santa Maria,Argentina,-31.2611,-64.4639,ARG
1032215828,Santa Rosa,Argentina,-36.6203,-64.2906,ARG
1032840625,Santa Rosa,Argentina,-28.2631,-58.1189,ARG
1032342654,Santa Rosa de Calamuchita,Argentina,-32.0667,-64.5333,ARG
1032062100,Santa Rosa de Rio Primero,Argentina,-31.15,-63.3833,ARG
1032492280,Santiago del Estero,Argentina,-27.7844,-64.2669,ARG
1032375645,Santo Tome,Argentina,-31.6667,-60.7667,ARG
1032993271,Sarandi,Argentina,-34.6833,-58.3333,ARG
1032479340,Sarmiento,Argentina,-45.6,-69.0833,ARG
1032262711,Senillosa,Argentina,-39.01,-68.43,ARG
1032417224,Sierra Colorada,Argentina,-40.5875,-67.7583,ARG
1032535886,Sierra Grande,Argentina,-41.6061,-65.3558,ARG
1032630690,Sunchales,Argentina,-30.9442,-61.5614,ARG
1032742255,Susques,Argentina,-23.4006,-66.3672,ARG
1032075057,Tandil,Argentina,-37.3167,-59.1333,ARG
1032831289,Tapiales,Argentina,-34.7058,-58.5047,ARG
1032317391,Tartagal,Argentina,-22.5,-63.8333,ARG
1032824407,Telsen,Argentina,-42.3833,-66.95,ARG
1032183944,Temperley,Argentina,-34.7667,-58.3833,ARG
1032163046,Tinogasta,Argentina,-28.0667,-67.5667,ARG
1032418123,Trancas,Argentina,-26.2308,-65.2781,ARG
1032440034,Trelew,Argentina,-43.2533,-65.3094,ARG
1032291724,Tres Arroyos,Argentina,-38.3667,-60.2667,ARG
1032630866,Trevelin,Argentina,-43.0833,-71.4667,ARG
1032526901,Tunuyan,Argentina,-33.5667,-69.0167,ARG
1032865903,Unquillo,Argentina,-31.2333,-64.3167,ARG
1032847885,Ushuaia,Argentina,-54.8072,-68.3044,ARG
1032547934,Uspallata,Argentina,-32.5931,-69.346,ARG
1032801782,Veinticinco de Mayo,Argentina,-35.4167,-60.1667,ARG
1032912712,Veinticinco de Mayo,Argentina,-37.771,-67.7173,ARG
1032715340,Veintiocho de Noviembre,Argentina,-51.584,-72.2143,ARG
1032284763,Venado Tuerto,Argentina,-33.75,-61.9667,ARG
1032305174,Vera,Argentina,-29.4667,-60.2167,ARG
1032549688,Vicente Lopez,Argentina,-34.5333,-58.475,ARG
1032557014,Victoria,Argentina,-32.6167,-60.1667,ARG
1032392251,Victorica,Argentina,-36.2167,-65.434,ARG
1032613063,Viedma,Argentina,-40.8,-63,ARG
1032929712,Villa Adelina,Argentina,-34.5175,-58.5475,ARG
1032113931,Villa Allende,Argentina,-31.2944,-64.2953,ARG
1032506308,Villa Alsina,Argentina,-34.6667,-58.4167,ARG
1032039944,Villa Angela,Argentina,-27.5833,-60.7167,ARG
1032854975,Villa Carlos Paz,Argentina,-31.4,-64.5167,ARG
1032320584,Villa Celina,Argentina,-34.7006,-58.4825,ARG
1032793574,Villa Constitucion,Argentina,-33.2333,-60.3333,ARG
1032114094,Villa Cura Brochero,Argentina,-31.71,-65.02,ARG
1032540940,Villa del Rosario,Argentina,-31.5833,-63.5333,ARG
1032866743,Villa Dominico,Argentina,-34.6917,-58.3333,ARG
1032447209,Villa General Belgrano,Argentina,-31.9667,-64.5667,ARG
1032960969,Villa Gesell,Argentina,-37.2556,-56.9681,ARG
1032925504,Villa Huidobro,Argentina,-34.8333,-64.5833,ARG
1032303492,Villa La Angostura,Argentina,-40.7616,-71.6448,ARG
1032092344,Villa Luzuriaga,Argentina,-34.6667,-58.5833,ARG
1032987787,Villa Maria,Argentina,-32.4103,-63.2314,ARG
1032858021,Villa Mercedes,Argentina,-33.6667,-65.4667,ARG
1032374249,Villa Nueva,Argentina,-32.4331,-63.2475,ARG
1032597939,Villa Paranacito,Argentina,-33.7,-58.6833,ARG
1032583314,Villa Regina,Argentina,-39.1,-67.0667,ARG
1032717709,Villa Rumipal,Argentina,-32.1879,-64.4803,ARG
1032961945,Villa Sarmiento,Argentina,-34.6333,-58.5667,ARG
1032112502,Villaguay,Argentina,-31.85,-59.0167,ARG
1032282782,Villalonga,Argentina,-39.8829,-62.5833,ARG
1032256650,Wilde,Argentina,-34.7,-58.3167,ARG
1032704902,Yacimiento Rio Turbio,Argentina,-51.5361,-72.3361,ARG
1032365659,Zapala,Argentina,-38.9028,-70.065,ARG
1032392383,Zarate,Argentina,-34.0833,-59.0333,ARG
1051509043,Abovyan,Armenia,40.2739,44.6256,ARM
1051730865,Akhuryan,Armenia,40.7814,43.8964,ARM
1051787137,Alaverdi,Armenia,41.1333,44.65,ARM
1051583934,Aparan,Armenia,40.5891,44.3572,ARM
1051001914,Aragatsavan,Armenia,40.3331,43.6581,ARM
1051804328,Ararat,Armenia,39.8303,44.7025,ARM
1051878002,Armavir,Armenia,40.15,44.04,ARM
1051969157,Artashat,Armenia,39.9539,44.5506,ARM
1051264283,Artik,Armenia,40.6172,43.9758,ARM
1051714712,Ashtarak,Armenia,40.2975,44.3617,ARM
1051408099,Ayntap,Armenia,40.0986,44.4681,ARM
1051965968,Berd,Armenia,40.8808,45.3917,ARM
1051696950,Byureghavan,Armenia,40.3147,44.5936,ARM
1051172497,Chambarak,Armenia,40.5953,45.3475,ARM
1051304472,Charentsavan,Armenia,40.4097,44.6431,ARM
1051278149,Dilijan,Armenia,40.7408,44.8631,ARM
1051214432,Ejmiatsin,Armenia,40.1728,44.2925,ARM
1051275333,Garrni,Armenia,40.1194,44.7231,ARM
1051983153,Gavarr,Armenia,40.3589,45.1267,ARM
1051724931,Goris,Armenia,39.5078,46.3386,ARM
1051341374,Gyumri,Armenia,40.7894,43.8475,ARM
1051566733,Hrazdan,Armenia,40.5,44.7667,ARM
1051007129,Ijevan,Armenia,40.8792,45.1472,ARM
1051135632,Jermuk,Armenia,39.8417,45.6722,ARM
1051050758,Jrvezh,Armenia,40.1856,44.5869,ARM
1051149529,Kajaran,Armenia,39.1594,46.1222,ARM
1051527958,Kapan,Armenia,39.2011,46.415,ARM
1051008108,Karmir Gyukh,Armenia,40.3306,45.1839,ARM
1051665873,Lichk,Armenia,40.1592,45.2347,ARM
1051325804,Maralik,Armenia,40.5722,43.8669,ARM
1051260753,Martuni,Armenia,40.14,45.3064,ARM
1051588635,Masis,Armenia,40.0672,44.4361,ARM
1051651063,Metsamor,Armenia,40.1428,44.1164,ARM
1051445812,Nerk'in Getashen,Armenia,40.1467,45.2642,ARM
1051802790,Nor Hachn,Armenia,40.3019,44.5831,ARM
1051811701,Noratus,Armenia,40.38,45.18,ARM
1051943920,Noyemberyan,Armenia,41.1725,44.9936,ARM
1051272802,Odzun,Armenia,41.0539,44.6114,ARM
1051317578,Oshakan,Armenia,40.2633,44.3147,ARM
1051014617,Sardarapat,Armenia,40.1361,44.0139,ARM
1051586680,Sevan,Armenia,40.555,44.9536,ARM
1051297901,Sisian,Armenia,39.5208,46.0322,ARM
1051088654,Spitak,Armenia,40.8372,44.2675,ARM
1051221961,Stepanavan,Armenia,41.0096,44.3841,ARM
1051680734,Tashir,Armenia,41.1244,44.2819,ARM
1051601540,Tsovinar,Armenia,40.16,45.4664,ARM
1051691929,Vanadzor,Armenia,40.8128,44.4883,ARM
1051146271,Vardenik,Armenia,40.1331,45.4367,ARM
1051776950,Vardenis,Armenia,40.1806,45.72,ARM
1051497874,Vedi,Armenia,39.9106,44.7278,ARM
1051624886,Verin Getashen,Armenia,40.1328,45.2486,ARM
1051234787,Yeghegnadzor,Armenia,39.7611,45.3333,ARM
1051779287,Yeghvard,Armenia,40.3217,44.4814,ARM
1051320429,Yeranos,Armenia,40.2042,45.1883,ARM
1051074169,Yerevan,Armenia,40.1814,44.5144,ARM
1533513057,Oranjestad,Aruba,12.5186,-70.0358,ABW
1533786612,Tanki Leendert,Aruba,12.5418,-70.022,ABW
1036538171,Adelaide,Australia,-34.9275,138.6,AUS
1036136750,Adelaide River,Australia,-13.2381,131.1061,AUS
1036047365,Albany,Australia,-35.0228,117.8814,AUS
1036076542,Albury,Australia,-36.0806,146.9158,AUS
1036830397,Alice Springs,Australia,-23.7,133.8667,AUS
1036379241,Alstonville,Australia,-28.8317,153.4344,AUS
1036260794,Andamooka,Australia,-30.447,137.166,AUS
1036907443,Andergrove,Australia,-21.0931,149.186,AUS
1036674088,Ararat,Australia,-37.2833,142.9167,AUS
1036975829,Armidale,Australia,-30.5,151.65,AUS
1036456869,Atherton,Australia,-17.2658,145.478,AUS
1036182351,Australind,Australia,-33.28,115.726,AUS
1036228772,Ayr,Australia,-19.5744,147.4066,AUS
1036524751,Bacchus Marsh,Australia,-37.675,144.4389,AUS
1036432237,Bairnsdale,Australia,-37.8333,147.6167,AUS
1036567186,Ballarat,Australia,-37.5608,143.8475,AUS
1036040102,Ballina,Australia,-28.8333,153.5333,AUS
1036085175,Bannockburn,Australia,-38.05,144.1667,AUS
1036608972,Banora Point,Australia,-28.2225,153.5386,AUS
1036284609,Barcaldine,Australia,-23.5555,145.2888,AUS
1036308552,Bargara,Australia,-24.8205,152.4625,AUS
1036797778,Barwon Heads,Australia,-38.25,144.5167,AUS
1036272805,Batemans Bay,Australia,-35.7081,150.1744,AUS
1036446465,Bathurst,Australia,-33.42,149.5778,AUS
1036443236,Beaudesert,Australia,-27.988,152.9958,AUS
1036680924,Bedourie,Australia,-24.35,139.4667,AUS
1036411138,Beerwah,Australia,-26.8583,152.9588,AUS
1036934047,Benalla,Australia,-36.5519,145.9817,AUS
1036537913,Bendigo,Australia,-36.75,144.2667,AUS
1036554717,Berri,Australia,-34.2833,140.6,AUS
1036189642,Bicheno,Australia,-41.8667,148.2833,AUS
1036014905,Biloela,Australia,-24.4002,150.5133,AUS
1036830335,Birdsville,Australia,-25.8989,139.352,AUS
1036026558,Blaxland,Australia,-33.75,150.6167,AUS
1036863296,Bli Bli,Australia,-26.618,153.037,AUS
1036102200,Bomaderry,Australia,-34.848,150.605,AUS
1036269345,Bongaree,Australia,-27.0813,153.1636,AUS
1036115980,Bordertown,Australia,-36.3118,140.7702,AUS
1036512474,Boulia,Australia,-22.9,139.9,AUS
1036074667,Bourke,Australia,-30.1,145.9333,AUS
1036979225,Bowen,Australia,-20.0102,148.2416,AUS
1036253752,Bowral,Australia,-34.4792,150.4181,AUS
1036192929,Brisbane,Australia,-27.4678,153.0281,AUS
1036216956,Broken Hill,Australia,-31.95,141.4667,AUS
1036047905,Broome,Australia,-17.9619,122.2361,AUS
1036370763,Bullsbrook,Australia,-31.663,116.03,AUS
1036561011,Bunbury,Australia,-33.3272,115.6369,AUS
1036377333,Bundaberg,Australia,-24.8661,152.3494,AUS
1036956849,Burketown,Australia,-17.7167,139.5667,AUS
1036394657,Burnie,Australia,-41.0636,145.8753,AUS
1036894671,Burpengary,Australia,-27.1442,153,AUS
1036911902,Busselton,Australia,-33.6478,115.3458,AUS
1036606974,Byron Bay,Australia,-28.6483,153.6178,AUS
1036273434,Caboolture,Australia,-27.0667,152.967,AUS
1036016939,Cairns,Australia,-16.92,145.78,AUS
1036428332,Calliope,Australia,-24.0061,151.1988,AUS
1036266942,Caloundra,Australia,-26.7986,153.1289,AUS
1036815011,Camooweal,Australia,-19.9167,138.117,AUS
1036474450,Campbelltown,Australia,-34.0733,150.8261,AUS
1036142029,Canberra,Australia,-35.2931,149.1269,AUS
1036428480,Cannonvale,Australia,-20.2787,148.6994,AUS
1036344209,Carnarvon,Australia,-24.8672,113.6611,AUS
1036855900,Casino,Australia,-28.8667,153.05,AUS
1036572269,Castlemaine,Australia,-37.0636,144.2172,AUS
1036725988,Ceduna,Australia,-32.1167,133.6667,AUS
1036067845,Central Coast,Australia,-33.3,151.2,AUS
1036822046,Cessnock,Australia,-32.8342,151.3555,AUS
1036575498,Charleville,Australia,-26.4016,146.2383,AUS
1036733088,Charters Towers,Australia,-20.0765,146.2614,AUS
1036824282,Chinchilla,Australia,-26.7383,150.6283,AUS
1036842122,Clare,Australia,-33.8333,138.6,AUS
1036319529,Clifton Springs,Australia,-38.15,144.5667,AUS
1036672657,Cloncurry,Australia,-20.7047,140.5052,AUS
1036438159,Cobram,Australia,-35.9667,145.65,AUS
1036320442,Coffs Harbour,Australia,-30.3022,153.1189,AUS
1036633113,Colac,Australia,-38.3403,143.5847,AUS
1036553705,Collie,Australia,-33.363,116.156,AUS
1036070931,Cooma,Australia,-36.2317,149.1178,AUS
1036555720,Cooranbong,Australia,-33.074,151.451,AUS
1036618399,Cootamundra,Australia,-34.6483,148.0344,AUS
1036501460,Corinda,Australia,-27.4833,153.1,AUS
1036866154,Corowa,Australia,-35.9942,146.3844,AUS
1036921929,Cowell,Australia,-33.6833,136.9167,AUS
1036204877,Cowra,Australia,-33.8183,148.6578,AUS
1036685862,Cranbourne,Australia,-38.0996,145.2834,AUS
1036194178,Currumbin,Australia,-28.158,153.469,AUS
1036053707,Dalby,Australia,-27.1813,151.2661,AUS
1036214023,Dandenong,Australia,-37.981,145.215,AUS
1036031812,Darley,Australia,-37.6547,144.437,AUS
1036497565,Darwin,Australia,-12.4381,130.8411,AUS
1036325219,Deniliquin,Australia,-35.5331,144.9667,AUS
1036033175,Devonport,Australia,-41.18,146.3503,AUS
1036001258,Dromana,Australia,-38.338,144.965,AUS
1036564546,Drouin,Australia,-38.1333,145.85,AUS
1036855042,Dubbo,Australia,-32.2569,148.6011,AUS
1036428544,Dunsborough,Australia,-33.6167,115.1,AUS
1036094141,East Ballina,Australia,-28.8594,153.5872,AUS
1036292989,Echuca,Australia,-36.1333,144.75,AUS
1036235197,Eidsvold,Australia,-25.3667,151.1333,AUS
1036124660,Emerald,Australia,-23.5208,148.1619,AUS
1036823239,Emerald,Australia,-37.9331,145.437,AUS
1036920187,Emu Plains,Australia,-33.7483,150.6678,AUS
1036299314,Esperance,Australia,-33.8611,121.8919,AUS
1036006022,Exmouth,Australia,-21.9331,114.1281,AUS
1036523834,Forbes,Australia,-33.3817,148.0011,AUS
1036685795,Forster,Australia,-32.1806,152.5117,AUS
1036126828,Frankston,Australia,-38.158,145.135,AUS
1036824217,Fremantle,Australia,-32.0569,115.7439,AUS
1036434682,Gatton,Australia,-27.5611,152.2755,AUS
1036309493,Gawler,Australia,-34.5981,138.745,AUS
1036870987,Geelong,Australia,-38.15,144.35,AUS
1036412066,Georgetown,Australia,-18.3,143.55,AUS
1036811875,Geraldton,Australia,-28.7744,114.6089,AUS
1036686561,Gingin,Australia,-31.34,115.91,AUS
1036388639,Gisborne,Australia,-37.49,144.5889,AUS
1036070755,Gladstone,Australia,-23.8427,151.2555,AUS
1036172029,Glass House Mountains,Australia,-26.9,152.9167,AUS
1036276799,Glen Innes,Australia,-29.7317,151.7511,AUS
1036560336,Glenbrook,Australia,-33.765,150.6267,AUS
1036153217,Gold Coast,Australia,-28.0167,153.4,AUS
1036452066,Goondiwindi,Australia,-28.5461,150.3097,AUS
1036897159,Goonellabah,Australia,-28.8167,153.3167,AUS
1036505934,Gordonvale,Australia,-17.0936,145.7866,AUS
1036347537,Goulburn,Australia,-34.7547,149.6186,AUS
1036779939,Gracemere,Australia,-23.4391,150.4558,AUS
1036615468,Grafton,Australia,-29.6833,152.9333,AUS
1036563313,Griffith,Australia,-34.29,146.04,AUS
1036500021,Gunnedah,Australia,-30.9667,150.25,AUS
1036391013,Gympie,Australia,-26.19,152.6655,AUS
1036444511,Halls Creek,Australia,-18.23,127.67,AUS
1036699883,Hamilton,Australia,-37.7333,142.0167,AUS
1036553015,Healesville,Australia,-37.6561,145.5139,AUS
1036359360,Helensburgh,Australia,-34.1889,150.9811,AUS
1036833938,Hervey Bay,Australia,-25.29,152.84,AUS
1036399510,Highfields,Australia,-27.4633,151.9458,AUS
1036679838,Hobart,Australia,-42.8806,147.325,AUS
1036654340,Horsham,Australia,-36.7167,142.2,AUS
1036674070,Howard Springs,Australia,-12.4922,131.053,AUS
1036738932,Hughenden,Australia,-20.8438,144.1986,AUS
1036238542,Ingham,Australia,-18.65,146.1667,AUS
1036930229,Innisfail,Australia,-17.5238,146.0311,AUS
1036652902,Inverell,Australia,-29.7667,151.1167,AUS
1036393902,Inverloch,Australia,-38.6334,145.7278,AUS
1036244388,Ipswich,Australia,-27.6167,152.7667,AUS
1036990765,Irymple,Australia,-34.2333,142.1667,AUS
1036571526,Ivanhoe,Australia,-32.8983,144.3,AUS
1036214142,Jimboomba,Australia,-27.83,153.0313,AUS
1036429141,Kalbarri,Australia,-27.71,114.16,AUS
1036087904,Kalgoorlie,Australia,-30.7489,121.4658,AUS
1036769935,Kangaroo Flat,Australia,-36.7833,144.233,AUS
1036951388,Karratha,Australia,-20.7364,116.8464,AUS
1036926106,Karumba,Australia,-17.4838,140.8397,AUS
1036411379,Katanning,Australia,-33.6908,117.5553,AUS
1036323110,Katherine,Australia,-14.4667,132.2667,AUS
1036674004,Katoomba,Australia,-33.715,150.312,AUS
1036270756,Kelso,Australia,-33.4186,149.6056,AUS
1036897003,Kempsey,Australia,-31.0833,152.8333,AUS
1036754695,Kiama,Australia,-34.6708,150.8542,AUS
1036560277,Kiama Downs,Australia,-34.6317,150.8511,AUS
1036740563,Kilmore,Australia,-37.2833,144.95,AUS
1036035341,Kimba,Australia,-33.1333,136.417,AUS
1036463308,Kingaroy,Australia,-26.5408,151.8394,AUS
1036942792,Kingoonya,Australia,-30.9,135.3,AUS
1036796141,Kingscliff,Australia,-28.2617,153.5769,AUS
1036297213,Kingston,Australia,-42.9769,147.3083,AUS
1036261175,Kingston South East,Australia,-36.8167,139.85,AUS
1036556231,Kununurra,Australia,-15.7736,128.7386,AUS
1036219161,Kurri Kurri,Australia,-32.8167,151.4833,AUS
1036753478,Kwinana,Australia,-32.2394,115.7702,AUS
1036000064,Kyabram,Australia,-36.3167,145.05,AUS
1036250832,Kyneton,Australia,-37.247,144.455,AUS
1036994006,Lakes Entrance,Australia,-37.8667,147.9833,AUS
1036754750,Lara,Australia,-38.0167,144.4167,AUS
1036170383,Launceston,Australia,-41.4419,147.145,AUS
1036624366,Laverton,Australia,-28.628,122.403,AUS
1036102538,Leeton,Australia,-34.5667,146.4,AUS
1036688711,Lennox Head,Australia,-28.7983,153.5844,AUS
1036910660,Leongatha,Australia,-38.4833,145.95,AUS
1036140404,Leonora,Australia,-28.88,121.33,AUS
1036263278,Leopold,Australia,-38.1892,144.4644,AUS
1036024174,Lismore,Australia,-28.8167,153.2833,AUS
1036591538,Lithgow,Australia,-33.4833,150.15,AUS
1036622618,Longreach,Australia,-23.4422,144.2491,AUS
1036662782,Lysterfield,Australia,-37.93,145.301,AUS
1036507374,Mackay,Australia,-21.1411,149.1858,AUS
1036194694,Maffra,Australia,-37.95,146.983,AUS
1036034945,Maitland,Australia,-32.7167,151.55,AUS
1036773118,Mandurah,Australia,-32.5289,115.7231,AUS
1036022434,Manjimup,Australia,-34.2411,116.1464,AUS
1036797275,Mareeba,Australia,-16.9833,145.4167,AUS
1036193817,Margaret River,Australia,-33.955,115.075,AUS
1036205623,Maryborough,Australia,-25.5375,152.7019,AUS
1036781601,Maryborough,Australia,-37.05,143.735,AUS
1036673821,McMinns Lagoon,Australia,-12.5329,131.05,AUS
1036608457,Meekatharra,Australia,-26.5931,118.4911,AUS
1036533631,Melbourne,Australia,-37.8136,144.9631,AUS
1036007778,Melton,Australia,-37.6833,144.5833,AUS
1036445634,Meningie,Australia,-35.6883,139.338,AUS
1036933197,Merimbula,Australia,-36.8983,149.9011,AUS
1036578320,Merredin,Australia,-31.482,118.279,AUS
1036000674,Merrimac,Australia,-28.05,153.3667,AUS
1036624348,Mildura,Australia,-34.1889,142.1583,AUS
1036760447,Millicent,Australia,-37.5967,140.3524,AUS
1036443307,Mittagong,Australia,-34.45,150.45,AUS
1036922580,Moe,Australia,-38.1722,146.2678,AUS
1036788714,Mooroopna,Australia,-36.3833,145.35,AUS
1036916453,Moranbah,Australia,-22.0016,148.0533,AUS
1036194388,Morawa,Australia,-29.2111,116.009,AUS
1036377829,Moree,Australia,-29.465,149.8344,AUS
1036750619,Morwell,Australia,-38.2333,146.4,AUS
1036872626,Moss Vale,Australia,-34.55,150.3833,AUS
1036530325,Mount Barker,Australia,-35.0667,138.85,AUS
1036651498,Mount Barker,Australia,-34.63,117.6669,AUS
1036481380,Mount Cotton,Australia,-27.6188,153.221,AUS
1036041769,Mount Eliza,Australia,-38.189,145.092,AUS
1036617292,Mount Evelyn,Australia,-37.783,145.385,AUS
1036932780,Mount Gambier,Australia,-37.8294,140.7828,AUS
1036386100,Mount Isa,Australia,-20.7333,139.5,AUS
1036327720,Mount Magnet,Australia,-28.06,117.846,AUS
1036213564,Mudgee,Australia,-32.6125,149.5872,AUS
1036345943,Murray Bridge,Australia,-35.117,139.267,AUS
1036989894,Murwillumbah,Australia,-28.3333,153.3833,AUS
1036253543,Muswellbrook,Australia,-32.2654,150.8885,AUS
1036560818,Nairne,Australia,-35.0333,138.9167,AUS
1036804920,Nambour,Australia,-26.6269,152.9591,AUS
1036453067,Nambucca Heads,Australia,-30.6414,152.9906,AUS
1036098836,Naracoorte,Australia,-36.955,140.7429,AUS
1036559054,Narangba,Australia,-27.2015,152.9655,AUS
1036714493,Narrabri,Australia,-30.3317,149.7678,AUS
1036476634,Narre Warren North,Australia,-37.982,145.314,AUS
1036221961,Narrogin,Australia,-32.936,117.178,AUS
1036777604,Nelson Bay,Australia,-32.715,152.1511,AUS
1036082899,Nerang,Australia,-27.9956,153.322,AUS
1036880683,New Norfolk,Australia,-42.7828,147.0594,AUS
1036468001,Newcastle,Australia,-32.9167,151.75,AUS
1036587511,Newman,Australia,-23.3539,119.7319,AUS
1036257263,Norseman,Australia,-32.1961,121.778,AUS
1036075287,North Mackay,Australia,-21.1216,149.1783,AUS
1036063516,North Tamborine,Australia,-27.9694,153.1992,AUS
1036868267,Northam,Australia,-31.6531,116.6661,AUS
1036984536,Nowra,Australia,-34.8808,150.6075,AUS
1036952732,Nuriootpa,Australia,-34.4667,138.9833,AUS
1036926323,Oatlands,Australia,-42.3,147.3706,AUS
1036584832,Ocean Shores,Australia,-28.5092,153.5375,AUS
1036255184,Onslow,Australia,-21.6333,115.1167,AUS
1036760396,Orange,Australia,-33.2833,149.1,AUS
1036764173,Ouyen,Australia,-35.0667,142.317,AUS
1036063031,Pakenham,Australia,-38.0712,145.4878,AUS
1036016511,Palmwoods,Australia,-26.6883,152.9597,AUS
1036914573,Pannawonica,Australia,-21.635,116.336,AUS
1036977270,Parkes,Australia,-33.133,148.176,AUS
1036121853,Penola,Australia,-37.3786,140.8362,AUS
1036796452,Penrith,Australia,-33.7511,150.6942,AUS
1036178956,Perth,Australia,-31.9522,115.8589,AUS
1036104272,Peterborough,Australia,-32.9667,138.8333,AUS
1036858004,Pine Creek,Australia,-13.8231,131.833,AUS
1036205903,Point Vernon,Australia,-25.2538,152.8177,AUS
1036945368,Port Augusta,Australia,-32.4925,137.7658,AUS
1036873405,Port Denison,Australia,-29.2833,114.9167,AUS
1036053723,Port Douglas,Australia,-16.4834,145.4652,AUS
1036509606,Port Hedland,Australia,-20.31,118.6011,AUS
1036558150,Port Lincoln,Australia,-34.7322,135.8586,AUS
1036051032,Port Macquarie,Australia,-31.4333,152.9,AUS
1036571606,Port Pirie,Australia,-33.1858,138.0169,AUS
1036439594,Portland,Australia,-38.3333,141.6,AUS
1036001080,Pottsville,Australia,-28.3869,153.5608,AUS
1036150859,Proserpine,Australia,-20.4017,148.5814,AUS
1036046868,Quakers Hill,Australia,-33.7344,150.8789,AUS
1036846465,Queanbeyan,Australia,-35.3533,149.2342,AUS
1036082142,Queenstown,Australia,-42.0667,145.55,AUS
1036696232,Quilpie,Australia,-26.6161,144.2675,AUS
1036878618,Ravensthorpe,Australia,-33.5831,120.049,AUS
1036570825,Raymond Terrace,Australia,-32.7615,151.7441,AUS
1036463286,Red Cliffs,Australia,-34.3075,142.1881,AUS
1036596124,Redlynch,Australia,-16.8833,145.7,AUS
1036934091,Richmond,Australia,-33.5983,150.7511,AUS
1036156498,Richmond,Australia,-20.7305,143.1425,AUS
1036018437,Rochedale,Australia,-27.6,153.133,AUS
1036768986,Rockhampton,Australia,-23.375,150.5117,AUS
1036752479,Roebourne,Australia,-20.7667,117.15,AUS
1036698836,Roma,Australia,-26.5733,148.7869,AUS
1036471917,Rutherford,Australia,-32.715,151.5317,AUS
1036066082,Rye,Australia,-38.377,144.838,AUS
1036960753,Sale,Australia,-38.1,147.0667,AUS
1036336388,Sanctuary Point,Australia,-35.1036,150.6267,AUS
1036990230,Sarina,Australia,-21.4225,149.2175,AUS
1036918224,Scone,Australia,-32.0483,150.8678,AUS
1036807079,Scottsdale,Australia,-41.1667,147.5167,AUS
1036919223,Seymour,Australia,-37.03,145.13,AUS
1036030548,Shepparton,Australia,-36.3833,145.4,AUS
1036947514,Singleton,Australia,-32.5667,151.1697,AUS
1036797461,Smithfield Heights,Australia,-16.8314,145.691,AUS
1036207188,Smithton,Australia,-40.844,145.12,AUS
1036275983,Somerville,Australia,-38.226,145.177,AUS
1036377966,South Grafton,Australia,-29.715,152.9344,AUS
1036931490,Southern Cross,Australia,-31.25,119.35,AUS
1036417513,Southport,Australia,-27.9667,153.4,AUS
1036106857,Springwood,Australia,-33.7036,150.55,AUS
1036073093,Stawell,Australia,-37.05,142.7667,AUS
1036708974,Strathalbyn,Australia,-35.2667,138.9,AUS
1036134944,Streaky Bay,Australia,-32.8,134.2167,AUS
1036519781,Sunbury,Australia,-37.5811,144.7139,AUS
1036220501,Swan Hill,Australia,-35.3333,143.55,AUS
1036074917,Sydney,Australia,-33.865,151.2094,AUS
1036345521,Tahmoor,Australia,-34.2233,150.5928,AUS
1036233388,Tamworth,Australia,-31.0833,150.9167,AUS
1036139879,Tannum Sands,Australia,-23.9474,151.3675,AUS
1036855717,Taree,Australia,-31.9,152.45,AUS
1036793708,Thargomindah,Australia,-28,143.8167,AUS
1036423364,Theodore,Australia,-24.95,150.0833,AUS
1036669084,Three Springs,Australia,-29.5333,115.717,AUS
1036464109,Tom Price,Australia,-22.6939,117.795,AUS
1036765315,Toowoomba,Australia,-27.5667,151.95,AUS
1036765457,Torquay,Australia,-38.3333,144.3167,AUS
1036500020,Townsville,Australia,-19.25,146.8167,AUS
1036938861,Traralgon,Australia,-38.1958,146.5403,AUS
1036529327,Tumby Bay,Australia,-34.3667,136.1,AUS
1036777587,Tumut,Australia,-35.3039,148.2233,AUS
1036846186,Tuncurry,Australia,-32.175,152.4989,AUS
1036571941,Tweed Heads,Australia,-28.1833,153.55,AUS
1036687220,Ulladulla,Australia,-35.3486,150.4678,AUS
1036014544,Ulverstone,Australia,-41.1667,146.1667,AUS
1036945468,Urraween,Australia,-25.2955,152.8219,AUS
1036536547,Victor Harbor,Australia,-35.55,138.6167,AUS
1036273188,Wagga Wagga,Australia,-35.1189,147.3689,AUS
1036851354,Wagin,Australia,-33.3167,117.35,AUS
1036357414,Wallan,Australia,-37.4167,144.9833,AUS
1036743246,Wallaroo,Australia,-33.9167,137.6167,AUS
1036395326,Wangaratta,Australia,-36.3583,146.3125,AUS
1036504084,Warragul,Australia,-38.15,145.9333,AUS
1036291219,Warrnambool,Australia,-38.3833,142.4833,AUS
1036412726,Warwick,Australia,-28.2152,152.0352,AUS
1036727537,Waterford,Australia,-27.6906,153.1332,AUS
1036327296,Wauchope,Australia,-31.45,152.7333,AUS
1036501067,Weipa,Australia,-12.6167,141.8667,AUS
1036272828,Wentworth Falls,Australia,-33.7164,150.3772,AUS
1036742059,Whittlesea,Australia,-37.5139,145.114,AUS
1036961366,Whyalla,Australia,-33.0333,137.5667,AUS
1036134474,Wilcannia,Australia,-31.565,143.3678,AUS
1036272226,Windorah,Australia,-25.4206,142.6547,AUS
1036745521,Wingham,Australia,-31.85,152.367,AUS
1036031036,Winton,Australia,-22.3913,143.0381,AUS
1036788540,Wodonga,Australia,-36.1214,146.8881,AUS
1036068932,Wollert,Australia,-37.5833,145.0333,AUS
1036502269,Wollongong,Australia,-34.4331,150.8831,AUS
1036415078,Wonthaggi,Australia,-38.6056,145.5917,AUS
1036376029,Woodend,Australia,-37.363,144.526,AUS
1036143859,Woolgoolga,Australia,-30.115,153.2011,AUS
1036392822,Woomera,Australia,-31.1496,136.8,AUS
1036339460,Worragee,Australia,-34.9144,150.6386,AUS
1036474435,Wyndham,Australia,-15.4825,128.123,AUS
1036260821,Wynyard,Australia,-41,145.7167,AUS
1036259324,Yamba,Australia,-29.44,153.3594,AUS
1036796651,Yanchep,Australia,-31.55,115.634,AUS
1036458763,Yarrawonga,Australia,-36.0167,146,AUS
1036799517,Yass,Australia,-34.8203,148.9136,AUS
1036180170,Yeppoon,Australia,-23.1288,150.7444,AUS
1036073044,Young,Australia,-34.3,148.3,AUS
1036245584,Yulara,Australia,-25.2406,130.9889,AUS
1040206827,Absam,Austria,47.2965,11.5149,AUT
1040346739,Abtenau,Austria,47.5333,13.35,AUT
1040036946,Admont,Austria,47.5731,14.4611,AUT
1040330899,Alkoven,Austria,48.2872,14.1069,AUT
1040709033,Altach,Austria,47.35,9.65,AUT
1040325018,Altmunster,Austria,47.9,13.7667,AUT
1040466200,Amstetten,Austria,48.1167,14.8667,AUT
1040109715,Andorf,Austria,48.3667,13.5667,AUT
1040496902,Ansfelden,Austria,48.2083,14.2889,AUT
1040867014,Arnoldstein,Austria,46.5506,13.7039,AUT
1040794598,Asten,Austria,48.2167,14.4167,AUT
1040023749,Attnang-Puchheim,Austria,48.0167,13.7167,AUT
1040558670,Axams,Austria,47.2303,11.2792,AUT
1040115048,Bad Gleichenberg,Austria,46.8702,15.9027,AUT
1040000767,Bad Goisern,Austria,47.6417,13.6167,AUT
1040705265,Bad Hall,Austria,48.0344,14.2097,AUT
1040426981,Bad Hofgastein,Austria,47.1711,13.1072,AUT
1040620508,Bad Ischl,Austria,47.7115,13.6239,AUT
1040153986,Bad Voslau,Austria,47.9669,16.2144,AUT
1040727196,Bergheim,Austria,47.8403,13.0222,AUT
1040799035,Bischofshofen,Austria,47.4172,13.2194,AUT
1040404083,Bludenz,Austria,47.1533,9.8219,AUT
1040181679,Boheimkirchen,Austria,48.1978,15.7622,AUT
1040852989,Braunau am Inn,Austria,48.2583,13.0333,AUT
1040174258,Bregenz,Austria,47.505,9.7492,AUT
1040737040,Breitenfurth bei Wien,Austria,48.1333,16.15,AUT
1040346220,Bruck an der Leitha,Austria,48.0255,16.779,AUT
1040863751,Bruck an der Mur,Austria,47.4106,15.2686,AUT
1040836072,Brunn am Gebirge,Austria,48.1069,16.2842,AUT
1040363748,Deutsch-Wagram,Austria,48.2994,16.5644,AUT
1040677286,Deutschlandsberg,Austria,46.8161,15.215,AUT
1040508998,Dornbirn,Austria,47.4167,9.75,AUT
1040337695,Ebbs,Austria,47.63,12.2147,AUT
1040520969,Ebensee,Austria,47.8122,13.7731,AUT
1040845798,Eberndorf,Austria,46.5914,14.6436,AUT
1040140481,Ebreichsdorf,Austria,47.9611,16.4047,AUT
1040028289,Eggersdorf bei Graz,Austria,47.1228,15.5992,AUT
1040422248,Eibiswald,Austria,46.6867,15.2472,AUT
1040751740,Eisenstadt,Austria,47.8456,16.5189,AUT
1040797576,Elsbethen,Austria,47.7636,13.0817,AUT
1040013380,Engerwitzdorf,Austria,48.3397,14.4256,AUT
1040630607,Enns,Austria,48.2167,14.475,AUT
1040121486,Eugendorf,Austria,47.8669,13.1242,AUT
1040806778,Fehring,Austria,46.9364,16.0106,AUT
1040342228,Feldbach,Austria,46.955,15.8883,AUT
1040318480,Feldkirchen,Austria,46.7236,14.0919,AUT
1040289103,Feldkirchen an der Donau,Austria,48.3456,14.0503,AUT
1040525423,Feldkirchen bei Graz,Austria,47.0125,15.4425,AUT
1040909637,Ferlach,Austria,46.5269,14.3019,AUT
1040012933,Fischamend,Austria,48.1156,16.6128,AUT
1040759684,Fohnsdorf,Austria,47.2083,14.6794,AUT
1040267648,Freistadt,Austria,48.5117,14.5061,AUT
1040237570,Frohnleiten,Austria,47.2703,15.3244,AUT
1040284464,Furstenfeld,Austria,47.05,16.0833,AUT
1040975167,Gallneukirchen,Austria,48.3531,14.4158,AUT
1040375279,Ganserndorf,Austria,48.3406,16.7175,AUT
1040342736,Garsten,Austria,48.0217,14.4089,AUT
1040814671,Gerasdorf bei Wien,Austria,48.295,16.4675,AUT
1040059456,Gleisdorf,Austria,47.1039,15.7083,AUT
1040986050,Gloggnitz,Austria,47.6758,15.9383,AUT
1040980800,Gmund,Austria,48.7667,14.9833,AUT
1040670341,Gmunden,Austria,47.9181,13.7994,AUT
1040702947,Gnas,Austria,46.8749,15.8263,AUT
1040768534,Gotzis,Austria,47.3342,9.6453,AUT
1040010498,Gramastetten,Austria,48.3811,14.19,AUT
1040254825,Gratkorn,Austria,47.1356,15.3392,AUT
1040184559,Graz,Austria,47.0708,15.4386,AUT
1040822650,Grieskirchen,Austria,48.235,13.8319,AUT
1040632003,Grodig,Austria,47.7394,13.0361,AUT
1040341836,Gross-Enzersdorf,Austria,48.2,16.55,AUT
1040785588,Gunskirchen,Austria,48.1344,13.9431,AUT
1040104912,Guntramsdorf,Austria,48.0483,16.315,AUT
1040598593,Haag,Austria,48.1122,14.5656,AUT
1040467554,Hafendorf,Austria,47.4556,15.3194,AUT
1040058108,Hainburg an der Donau,Austria,48.1478,16.9419,AUT
1040200365,Hall in Tirol,Austria,47.2833,11.5,AUT
1040821146,Hallein,Austria,47.6667,13.0833,AUT
1040681347,Hard,Austria,47.4892,9.69,AUT
1040068205,Hartberg,Austria,47.2806,15.97,AUT
1040570527,Herzogenburg,Austria,48.2833,15.6833,AUT
1040014896,Himberg,Austria,48.0667,16.4333,AUT
1040781591,Hitzendorf,Austria,47.0353,15.3008,AUT
1040607628,Hochst,Austria,47.4592,9.64,AUT
1040845678,Hohenems,Austria,47.3667,9.6667,AUT
1040573324,Hollabrunn,Austria,48.5667,16.0833,AUT
1040708572,Hopfgarten im Brixental,Austria,47.45,12.1667,AUT
1040438227,Horbranz,Austria,47.5553,9.7528,AUT
1040255352,Horn,Austria,48.6653,15.6558,AUT
1040000034,Horsching,Austria,48.2267,14.1794,AUT
1040504243,Imst,Austria,47.2394,10.7381,AUT
1040038924,Innsbruck,Austria,47.2683,11.3933,AUT
1040353084,Jenbach,Austria,47.3933,11.7767,AUT
1040723538,Judenburg,Austria,47.1725,14.6603,AUT
1040063428,Kalsdorf bei Graz,Austria,46.9661,15.4817,AUT
1040864298,Kapfenberg,Austria,47.4394,15.2894,AUT
1040311420,Kindberg,Austria,47.5044,15.4489,AUT
1040533732,Kirchberg in Tirol,Austria,47.45,12.3167,AUT
1040357993,Kirchbichl,Austria,47.5167,12.0667,AUT
1040301739,Kitzbuhel,Austria,47.4464,12.3919,AUT
1040149651,Klagenfurt,Austria,46.6167,14.3,AUT
1040735965,Klosterneuburg,Austria,48.3042,16.3167,AUT
1040186382,Knittelfeld,Austria,47.215,14.8294,AUT
1040578038,Koflach,Austria,47.0639,15.0889,AUT
1040595988,Korneuburg,Austria,48.3453,16.3331,AUT
1040381602,Kottingbrunn,Austria,47.9519,16.2292,AUT
1040577668,Krems an der Donau,Austria,48.4167,15.6167,AUT
1040315213,Kremsmunster,Austria,48.055,14.1308,AUT
1040630750,Krieglach,Austria,47.5456,15.5594,AUT
1040182981,Kuchl,Austria,47.6278,13.1472,AUT
1040156374,Kufstein,Austria,47.5833,12.1667,AUT
1040786111,Laa an der Thaya,Austria,48.7167,16.3833,AUT
1040055619,Laakirchen,Austria,47.9828,13.8242,AUT
1040988782,Landeck,Austria,47.1333,10.5667,AUT
1040567279,Langenlois,Austria,48.4667,15.6833,AUT
1040650045,Langenzersdorf,Austria,48.3069,16.3553,AUT
1040609359,Lauterach,Austria,47.4772,9.7314,AUT
1040580132,Leibnitz,Austria,46.7831,15.545,AUT
1040134752,Lenzing,Austria,47.9761,13.5956,AUT
1040591429,Leoben,Austria,47.3817,15.0972,AUT
1040991026,Leonding,Austria,48.2792,14.2528,AUT
1040952033,Leopoldsdorf,Austria,48.1167,16.4,AUT
1040859304,Lieboch,Austria,46.9742,15.3375,AUT
1040923905,Lienz,Austria,46.8297,12.7697,AUT
1040464860,Liezen,Austria,47.5667,14.2333,AUT
1040261171,Linz,Austria,48.3,14.2833,AUT
1040573398,Lochau,Austria,47.53,9.7517,AUT
1040745157,Lustenau,Austria,47.4271,9.6711,AUT
1040791234,Marchtrenk,Austria,48.1917,14.1106,AUT
1040889264,Maria Enzersdorf,Austria,48.1,16.2833,AUT
1040370426,Markt Sankt Florian,Austria,48.2089,14.3794,AUT
1040428013,Mattersburg,Austria,47.7381,16.3969,AUT
1040983702,Mattighofen,Austria,48.1067,13.1494,AUT
1040399784,Melk,Austria,48.2269,15.3439,AUT
1040942506,Mistelbach,Austria,48.5667,16.5667,AUT
1040569101,Mittermicheldorf,Austria,47.8781,14.1333,AUT
1040110638,Mittersill,Austria,47.2667,12.4667,AUT
1040024396,Modling,Austria,48.0856,16.2831,AUT
1040974582,Murzzuschlag,Austria,47.6075,15.6731,AUT
1040966966,Nenzing,Austria,47.1667,9.6833,AUT
1040036446,Neuhofen an der Krems,Austria,48.1336,14.2333,AUT
1040795317,Neulengbach,Austria,48.1833,15.9,AUT
1040373485,Neumarkt am Wallersee,Austria,47.9453,13.2247,AUT
1040203057,Neunkirchen,Austria,47.7269,16.0817,AUT
1040084469,Neusiedl am See,Austria,47.9486,16.8431,AUT
1040531486,Oberndorf bei Salzburg,Austria,47.9417,12.9417,AUT
1040589942,Oberwart,Austria,47.2878,16.2031,AUT
1040129417,Ohlsdorf,Austria,47.9614,13.7928,AUT
1040303640,Pasching,Austria,48.2589,14.2028,AUT
1040308478,Paternion,Austria,46.7122,13.6378,AUT
1040055191,Perchtoldsdorf,Austria,48.1167,16.2667,AUT
1040523501,Perg,Austria,48.2503,14.6336,AUT
1040312768,Pettenbach,Austria,47.9617,14.0167,AUT
1040205170,Pinkafeld,Austria,47.3717,16.1219,AUT
1040332335,Pollau,Austria,47.3019,15.8339,AUT
1040299159,Pottendorf,Austria,47.9064,16.3908,AUT
1040117659,Poysdorf,Austria,48.6667,16.6333,AUT
1040457074,Pregarten,Austria,48.3556,14.5306,AUT
1040060387,Pressbaum,Austria,48.1833,16.0825,AUT
1040636796,Purkersdorf,Austria,48.2092,16.1792,AUT
1040391967,Radenthein,Austria,46.8,13.7,AUT
1040449499,Rankweil,Austria,47.2667,9.65,AUT
1040704698,Reutte,Austria,47.4833,10.7167,AUT
1040700214,Ried im Innkreis,Austria,48.21,13.4894,AUT
1040405543,Rottenmann,Austria,47.5267,14.3558,AUT
1040726454,Rum,Austria,47.2872,11.4581,AUT
1040716716,Saalfelden am Steinernen Meer,Austria,47.4269,12.8483,AUT
1040312147,Salzburg,Austria,47.7972,13.0477,AUT
1040740376,Sankt Andra,Austria,46.7667,14.8167,AUT
1040863100,Sankt Andra vor dem Hagenthale,Austria,48.3278,16.2094,AUT
1040330095,Sankt Johann im Pongau,Austria,47.35,13.2,AUT
1040232004,Sankt Johann in Tirol,Austria,47.5225,12.4256,AUT
1040897122,Sankt Peter in der Au Dorf,Austria,48.045,14.6247,AUT
1040313109,Sankt Polten,Austria,48.2,15.6167,AUT
1040000143,Sankt Ruprecht an der Raab,Austria,47.1539,15.6622,AUT
1040852174,Sankt Valentin,Austria,48.1747,14.5333,AUT
1040281881,Sankt Veit an der Glan,Austria,46.7667,14.3603,AUT
1040841987,Scharding,Austria,48.4569,13.4317,AUT
1040957044,Schladming,Austria,47.3942,13.6892,AUT
1040881676,Schrems,Austria,48.7833,15.0667,AUT
1040919527,Schwaz,Austria,47.35,11.7,AUT
1040189871,Schwechat,Austria,48.1411,16.4786,AUT
1040661832,Schwertberg,Austria,48.2717,14.5833,AUT
1040382244,Seeboden,Austria,46.8189,13.5183,AUT
1040280131,Seiersberg,Austria,47.01,15.3989,AUT
1040000051,Sieghartskirchen,Austria,48.2539,16.0125,AUT
1040285076,Sierning,Austria,48.0447,14.31,AUT
1040448169,Sollenau,Austria,47.9,16.25,AUT
1040725914,Spielberg bei Knittelfeld,Austria,47.2167,14.7833,AUT
1040131621,Spittal an der Drau,Austria,46.7917,13.4958,AUT
1040237081,Stadl-Paura,Austria,48.0839,13.8639,AUT
1040766288,Stainz,Austria,46.8942,15.2639,AUT
1040132113,Steyr,Austria,48.05,14.4167,AUT
1040718812,Stockerau,Austria,48.3858,16.2108,AUT
1040365922,Strasshof an der Nordbahn,Austria,48.3194,16.6475,AUT
1040431113,Strasswalchen,Austria,47.98,13.2547,AUT
1040140953,Tamsweg,Austria,47.1167,13.8,AUT
1040393855,Telfs,Austria,47.3069,11.0722,AUT
1040196639,Ternitz,Austria,47.7167,16.0333,AUT
1040000048,Thalgau,Austria,47.8413,13.2537,AUT
1040539592,Thalheim bei Wels,Austria,48.1514,14.0383,AUT
1040050658,Timelkam,Austria,48.0014,13.6125,AUT
1040581289,Traiskirchen,Austria,48.0189,16.2922,AUT
1040590929,Traismauer,Austria,48.3333,15.7331,AUT
1040684469,Traun,Austria,48.2217,14.2397,AUT
1040300354,Trofaiach,Austria,47.4261,15.0067,AUT
1040535411,Velden am Worthersee,Austria,46.6125,14.0419,AUT
1040261752,Vienna,Austria,48.2083,16.3725,AUT
1040202364,Villach,Austria,46.6167,13.8333,AUT
1040721177,Vocklabruck,Austria,48.0086,13.6558,AUT
1040639919,Voitsberg,Austria,47.0483,15.1503,AUT
1040264683,Volkermarkt,Austria,46.6622,14.6344,AUT
1040108255,Vols,Austria,47.25,11.3333,AUT
1040263030,Vomp,Austria,47.3422,11.6833,AUT
1040423443,Vorchdorf,Austria,48.0042,13.9242,AUT
1040100042,Vosendorf,Austria,48.1167,16.3333,AUT
1040674180,Wagna,Austria,46.7681,15.5583,AUT
1040085999,Waidhofen an der Thaya,Austria,48.8167,15.2833,AUT
1040615361,Waidhofen an der Ybbs,Austria,47.9596,14.7745,AUT
1040802000,Wattens,Austria,47.2914,11.5925,AUT
1040504116,Weiz,Austria,47.2189,15.6253,AUT
1040833210,Wels,Austria,48.15,14.0167,AUT
1040434241,Wernberg,Austria,46.6231,13.9394,AUT
1040799859,Wiener Neudorf,Austria,48.0856,16.3131,AUT
1040389518,Wiener Neustadt,Austria,47.8167,16.25,AUT
1040998769,Wildon,Austria,46.8869,15.5142,AUT
1040716919,Wilhelmsburg,Austria,48.1108,15.61,AUT
1040741980,Wilhering,Austria,48.3239,14.1906,AUT
1040360550,Wolfsberg,Austria,46.8419,14.8408,AUT
1040868153,Wolfurt,Austria,47.4731,9.7539,AUT
1040214159,Wolkersdorf im Weinviertel,Austria,48.3667,16.5167,AUT
1040228921,Worgl,Austria,47.4831,12.0664,AUT
1040524585,Ybbs an der Donau,Austria,48.1667,15.0667,AUT
1040352901,Zell am See,Austria,47.3233,12.7981,AUT
1040000110,Zeltweg,Austria,47.1906,14.7511,AUT
1040880314,Zirl,Austria,47.2733,11.2414,AUT
1040605021,Zistersdorf,Austria,48.5167,16.75,AUT
1040676174,Zwettl,Austria,48.6033,15.1689,AUT
1031860893,Agcabadi,Azerbaijan,40.0489,47.4502,AZE
1031176858,Agdam,Azerbaijan,39.9833,46.9167,AZE
1031834023,Agdam,Azerbaijan,40.9053,45.5564,AZE
1031916654,Agdas,Azerbaijan,40.65,47.4833,AZE
1031889683,Agstafa,Azerbaijan,41.1167,45.45,AZE
1031748204,Agsu,Azerbaijan,40.5708,48.3928,AZE
1031116600,Asagi Ayibli,Azerbaijan,40.9347,45.8261,AZE
1031376971,Astara,Azerbaijan,38.44,48.875,AZE
1031598031,Babak,Azerbaijan,39.1111,45.4114,AZE
1031114052,Bakixanov,Azerbaijan,40.4217,49.9644,AZE
1031946365,Baku,Azerbaijan,40.3667,49.8352,AZE
1031370082,Balakan,Azerbaijan,41.7186,46.4165,AZE
1031681050,Beylaqan,Azerbaijan,39.7692,47.6156,AZE
1031495701,Barda,Azerbaijan,40.3831,47.1186,AZE
1031149283,Bilasuvar,Azerbaijan,39.4481,48.5428,AZE
1031797928,Buzovna,Azerbaijan,40.5167,50.1167,AZE
1031379235,Cabrayil,Azerbaijan,39.4,47.0261,AZE
1031242117,Calilabad,Azerbaijan,39.2042,48.4958,AZE
1031974785,Corat,Azerbaijan,40.5739,49.7036,AZE
1031031472,Culfa,Azerbaijan,38.9558,45.6308,AZE
1031479797,Daskasan,Azerbaijan,40.5181,46.0828,AZE
1031053363,Davaci,Azerbaijan,41.2012,48.9871,AZE
1031512571,Ahmadli,Azerbaijan,40.3839,49.9475,AZE
1031947328,Alat,Azerbaijan,39.9483,49.4067,AZE
1031561618,Amircan,Azerbaijan,40.4236,49.9886,AZE
1031872322,Fuzuli,Azerbaijan,39.6003,47.1431,AZE
1031444480,Gadabay,Azerbaijan,40.5656,45.8161,AZE
1031197327,Ganca,Azerbaijan,40.6828,46.3606,AZE
1031383465,Goranboy,Azerbaijan,40.61,46.7872,AZE
1031227222,Goycay,Azerbaijan,40.6553,47.7389,AZE
1031823379,Goygol,Azerbaijan,40.5858,46.3189,AZE
1031848361,Goytapa,Azerbaijan,39.1167,48.5953,AZE
1031256738,Haci Zeynalabdin,Azerbaijan,40.6242,49.5575,AZE
1031015845,Haciqabul,Azerbaijan,40.0387,48.9429,AZE
1031540160,Heydarabad,Azerbaijan,39.7229,44.8485,AZE
1031686599,Imisli,Azerbaijan,39.8697,48.06,AZE
1031380246,Ismayilli,Azerbaijan,40.7839,48.1439,AZE
1031212922,Kalbacar,Azerbaijan,40.1098,46.0445,AZE
1031669390,Kis,Azerbaijan,41.2594,47.1881,AZE
1031160110,Kurdamir,Azerbaijan,40.3383,48.1608,AZE
1031245091,Lacin,Azerbaijan,39.6408,46.5469,AZE
1031887331,Lerik,Azerbaijan,38.7753,48.4153,AZE
1031218031,Lankaran,Azerbaijan,38.7536,48.8511,AZE
1031959844,Liman,Azerbaijan,38.8733,48.8139,AZE
1031329823,Lokbatan,Azerbaijan,40.3272,49.73,AZE
1031204213,M.A. Rasulzada,Azerbaijan,40.4344,49.8336,AZE
1031126416,Masalli,Azerbaijan,39.0324,48.6722,AZE
1031769792,Mastaga,Azerbaijan,40.5286,50.0103,AZE
1031509213,Mingacevir,Azerbaijan,40.77,47.0489,AZE
1031441683,Naftalan,Azerbaijan,40.5058,46.8192,AZE
1031943755,Naxcivan,Azerbaijan,39.2089,45.4122,AZE
1031299249,Neftcala,Azerbaijan,39.3791,49.2486,AZE
1031370337,Oguz,Azerbaijan,41.0708,47.4583,AZE
1031853196,Ordubad,Azerbaijan,38.9047,46.0231,AZE
1031058715,Pirallahi,Azerbaijan,40.4708,50.3217,AZE
1031616606,Qaracuxur,Azerbaijan,40.3969,49.9733,AZE
1031852971,Qax,Azerbaijan,41.4194,46.9181,AZE
1031240282,Qazax,Azerbaijan,41.0925,45.3656,AZE
1031242200,Qazmalar,Azerbaijan,40.9814,47.8458,AZE
1031787201,Qabala,Azerbaijan,40.9825,47.8491,AZE
1031867232,Qazyan,Azerbaijan,39.2015,46.415,AZE
1031050255,Qivraq,Azerbaijan,39.3994,45.1151,AZE
1031385198,Qobustan,Azerbaijan,40.5336,48.9282,AZE
1031341144,Qovlar,Azerbaijan,40.9419,45.7358,AZE
1031078072,Quba,Azerbaijan,41.3653,48.5264,AZE
1031526251,Qubadli,Azerbaijan,39.3439,46.5797,AZE
1031059559,Qusar,Azerbaijan,41.4219,48.4214,AZE
1031713436,Saatli,Azerbaijan,39.9311,48.3697,AZE
1031302623,Sabirabad,Azerbaijan,40.0053,48.4719,AZE
1031323095,Sahbuz,Azerbaijan,39.4073,45.5733,AZE
1031301869,Salyan,Azerbaijan,39.5961,48.9847,AZE
1031286384,Samaxi,Azerbaijan,40.6339,48.6392,AZE
1031600567,Samux,Azerbaijan,40.7642,46.4083,AZE
1031619846,Saki,Azerbaijan,41.1919,47.1706,AZE
1031776445,Samkir,Azerbaijan,40.8297,46.0189,AZE
1031386825,Sarur,Azerbaijan,39.5544,44.9826,AZE
1031478213,Sirvan,Azerbaijan,39.9323,48.9203,AZE
1031277547,Siyazan,Azerbaijan,41.0783,49.1061,AZE
1031630283,Sumqayit,Azerbaijan,40.5917,49.6397,AZE
1031808614,Susa,Azerbaijan,39.7602,46.7504,AZE
1031622673,Tartar,Azerbaijan,40.3353,46.9303,AZE
1031405942,Tovuz,Azerbaijan,40.9864,45.6275,AZE
1031822434,Ucar,Azerbaijan,40.5183,47.6542,AZE
1031335433,Xacmaz,Azerbaijan,41.4681,48.8028,AZE
1031875254,Xacmaz,Azerbaijan,41.0471,47.6043,AZE
1031053512,Xankandi,Azerbaijan,39.8153,46.7519,AZE
1031119834,Xindiristan,Azerbaijan,40.1214,47.1075,AZE
1031145251,Xirdalan,Azerbaijan,40.4486,49.7564,AZE
1031409125,Xizi,Azerbaijan,40.9111,49.0694,AZE
1031237556,Xocali,Azerbaijan,39.9131,46.7903,AZE
1031454735,Xocavand,Azerbaijan,39.795,47.1117,AZE
1031218803,Xudat,Azerbaijan,41.6339,48.6772,AZE
1031745676,Yardimli,Azerbaijan,38.9206,48.2372,AZE
1031581655,Yevlax,Azerbaijan,40.6172,47.15,AZE
1031500858,Zaqatala,Azerbaijan,41.6336,46.6433,AZE
1031852579,Zardab,Azerbaijan,40.2111,47.7108,AZE
1048992336,Al Muharraq,Bahrain,26.25,50.6167,BHR
1048219300,Madinat `Isa,Bahrain,26.1736,50.5478,BHR
1048909146,Madinat Hamad,Bahrain,26.1128,50.5139,BHR
1048989486,Manama,Bahrain,26.225,50.5775,BHR
1050297281,Barishal,Bangladesh,22.7,90.3667,BGD
1050193121,Brahmanbaria,Bangladesh,23.9667,91.1,BGD
1050830722,Chattogram,Bangladesh,22.335,91.8325,BGD
1050609330,Comilla,Bangladesh,23.45,91.2,BGD
1050529279,Dhaka,Bangladesh,23.7289,90.3944,BGD
1050173632,Harinakunda,Bangladesh,23.65,89.0333,BGD
1050233680,Jamalpur,Bangladesh,24.9004,89.95,BGD
1050244487,Jessore,Bangladesh,23.1704,89.2,BGD
1050667339,Khulna,Bangladesh,22.8167,89.55,BGD
1050399881,Mymensingh,Bangladesh,24.7504,90.38,BGD
1050424421,Narayanganj,Bangladesh,23.6167,90.5,BGD
1050904616,Narsingdi,Bangladesh,23.9,90.7167,BGD
1050253103,Nawabganj,Bangladesh,24.5804,88.35,BGD
1050424286,Pabna,Bangladesh,24.0004,89.25,BGD
1050547831,Rajshahi,Bangladesh,24.3667,88.6,BGD
1050667437,Rangpur,Bangladesh,25.75,89.2444,BGD
1050512022,Saidpur,Bangladesh,25.8004,89,BGD
1050646703,Sylhet,Bangladesh,24.9,91.8667,BGD
1050628940,Tangail,Bangladesh,24.25,89.92,BGD
1052274244,Bridgetown,Barbados,13.0975,-59.6167,BRB
1112383165,Ashmyany,Belarus,54.425,25.9375,BLR
1112583247,Asipovichy,Belarus,53.3,28.65,BLR
1112665123,Astravyets,Belarus,54.6136,25.9553,BLR
1112573808,Babruysk,Belarus,53.15,29.2333,BLR
1112544646,Baran',Belarus,54.4833,30.3333,BLR
1112421165,Baranavichy,Belarus,53.1167,25.9833,BLR
1112414592,Braslaw,Belarus,55.6397,27.0397,BLR
1112896927,Brest,Belarus,52.0847,23.6569,BLR
1112915706,Buda-Kashalyova,Belarus,52.7167,30.5667,BLR
1112253671,Byalynichy,Belarus,53.9956,29.7096,BLR
1112705431,Byaroza,Belarus,52.5333,24.9825,BLR
1112003239,Byarozawka,Belarus,53.7167,25.5,BLR
1112431328,Byelaazyorsk,Belarus,52.4717,25.1783,BLR
1112685859,Byerazino,Belarus,53.8333,28.9833,BLR
1112416616,Cherykaw,Belarus,53.5667,31.3667,BLR
1112859009,Davyd-Haradok,Belarus,52.0556,27.2139,BLR
1112814087,Dobrush,Belarus,52.4167,31.3167,BLR
1112244200,Drahichyn,Belarus,52.1833,25.15,BLR
1112348244,Dubrowna,Belarus,54.5667,30.6833,BLR
1112600874,Dzyarzhynsk,Belarus,53.6833,27.1333,BLR
1112528638,Dzyatlava,Belarus,53.45,25.4,BLR
1112544829,Fanipal',Belarus,53.75,27.3333,BLR
1112131300,Haradok,Belarus,55.4667,29.9833,BLR
1112510591,Hlybokaye,Belarus,55.1333,27.6833,BLR
1112580227,Homyel',Belarus,52.4417,30.9833,BLR
1112659163,Horad Barysaw,Belarus,54.226,28.4922,BLR
1112565326,Horki,Belarus,54.2833,30.9833,BLR
1112187197,Hrodna,Belarus,53.6667,23.8167,BLR
1112507447,Ivanava,Belarus,52.1333,25.55,BLR
1112135629,Iwye,Belarus,53.9307,25.7703,BLR
1112264242,Kalinkavichy,Belarus,52.1333,29.3333,BLR
1112796625,Kamyanyets,Belarus,52.4028,23.8083,BLR
1112976876,Kapyl',Belarus,53.15,27.0917,BLR
1112972491,Khoyniki,Belarus,51.9,29.9667,BLR
1112908122,Kirawsk,Belarus,53.2686,29.4736,BLR
1112059828,Klichaw,Belarus,53.4828,29.3411,BLR
1112437772,Klimavichy,Belarus,53.6167,31.95,BLR
1112054647,Klyetsk,Belarus,53.0636,26.6372,BLR
1112806145,Kobryn,Belarus,52.2167,24.3667,BLR
1112435342,Kruhlaye,Belarus,54.2479,29.7966,BLR
1112668114,Krupki,Belarus,54.325,29.1361,BLR
1112203208,Krychaw,Belarus,53.7194,31.7139,BLR
1112489566,Lahoysk,Belarus,54.2,27.85,BLR
1112110662,Lida,Belarus,53.8872,25.3028,BLR
1112500648,Luninyets,Belarus,52.25,26.8,BLR
1112654360,Lyuban',Belarus,52.7819,28.0525,BLR
1112518993,Mahilyow,Belarus,53.9089,30.343,BLR
1112822882,Maladzyechna,Belarus,54.3136,26.8517,BLR
1112089191,Malaryta,Belarus,51.7972,24.0808,BLR
1112958819,Mar''ina Horka,Belarus,53.5167,28.1417,BLR
1112000626,Masty,Belarus,53.4,24.5333,BLR
1112704173,Mazyr,Belarus,52.05,29.2333,BLR
1112846282,Mikashevichy,Belarus,52.2167,27.4667,BLR
1112348503,Minsk,Belarus,53.9022,27.5618,BLR
1112491469,Mstsislaw,Belarus,54.0196,31.7247,BLR
1112205603,Myadzyel,Belarus,54.8756,26.9386,BLR
1112297787,Myory,Belarus,55.6167,27.6167,BLR
1112536668,Narowlya,Belarus,51.8,29.5,BLR
1112500125,Navahrudak,Belarus,53.5833,25.8167,BLR
1112965860,Navapolatsk,Belarus,55.5333,28.6667,BLR
1112086719,Novalukoml',Belarus,54.6658,29.1547,BLR
1112188007,Orsha,Belarus,54.5092,30.4258,BLR
1112856591,Pastavy,Belarus,55.1167,26.8333,BLR
1112209279,Pinsk,Belarus,52.1153,26.1031,BLR
1112068992,Polatsk,Belarus,55.4833,28.8,BLR
1112269031,Pruzhany,Belarus,52.5567,24.4644,BLR
1112852097,Pyetrykaw,Belarus,52.1333,28.5,BLR
1112250470,Salihorsk,Belarus,52.7842,27.5425,BLR
1112017248,Skidal',Belarus,53.5833,24.25,BLR
1112995791,Slawharad,Belarus,53.4453,30.9964,BLR
1112619287,Slonim,Belarus,53.0833,25.3167,BLR
1112178336,Slutsk,Belarus,53.0167,27.55,BLR
1112716074,Smarhon',Belarus,54.4836,26.4,BLR
1112727949,Staryya Darohi,Belarus,53.0394,28.265,BLR
1112925605,Stolin,Belarus,51.8897,26.8507,BLR
1112415577,Stowbtsy,Belarus,53.4833,26.7333,BLR
1112351893,Svislach,Belarus,53.0333,24.1,BLR
1112741799,Svyetlahorsk,Belarus,52.6333,29.7333,BLR
1112544512,Syanno,Belarus,54.8,29.7,BLR
1112016670,Talachyn,Belarus,54.4167,29.7,BLR
1112634742,Uzda,Belarus,53.4661,27.2244,BLR
1112252303,Valozhyn,Belarus,54.0833,26.5167,BLR
1112164201,Vawkavysk,Belarus,53.1667,24.4667,BLR
1112405572,Vilyeyka,Belarus,54.4833,26.9167,BLR
1112480679,Vitsyebsk,Belarus,55.1833,30.1667,BLR
1112221488,Vyerkhnyadzvinsk,Belarus,55.7667,27.9333,BLR
1112844638,Vyetka,Belarus,52.5592,31.1808,BLR
1112333553,Zaslawye,Belarus,54,27.2833,BLR
1056695813,Aalst,Belgium,50.9383,4.0392,BEL
1056740173,Aarschot,Belgium,50.9842,4.8333,BEL
1056119316,Aartselaar,Belgium,51.1333,4.3869,BEL
1056681067,Alken,Belgium,50.8761,5.3078,BEL
1056520266,Alveringem,Belgium,51.0111,2.7108,BEL
1056317273,Amay,Belgium,50.5478,5.3192,BEL
1056140133,Ambleve,Belgium,50.3539,6.1692,BEL
1056666375,Andenne,Belgium,50.4833,5.1,BEL
1056297471,Anderlecht,Belgium,50.8392,4.3297,BEL
1056010234,Anderlues,Belgium,50.408,4.2696,BEL
1056129690,Anhee,Belgium,50.3167,4.8833,BEL
1056084793,Ans,Belgium,50.6625,5.52,BEL
1056797229,Antoing,Belgium,50.5669,3.4494,BEL
1056168623,Antwerp,Belgium,51.2211,4.3997,BEL
1056104188,Anzegem,Belgium,50.8336,3.4783,BEL
1056959747,Ardooie,Belgium,50.9667,3.1833,BEL
1056153119,Arendonk,Belgium,51.3203,5.0864,BEL
1056746428,Arlon,Belgium,49.6836,5.8167,BEL
1056635064,As,Belgium,51,5.5833,BEL
1056775940,Asse,Belgium,50.9,4.2,BEL
1056722855,Assebroek,Belgium,51.1964,3.2536,BEL
1056796526,Assenede,Belgium,51.2333,3.75,BEL
1056072722,Assesse,Belgium,50.3711,5.0231,BEL
1056512490,Ath,Belgium,50.6311,3.7769,BEL
1056753598,Attert,Belgium,49.75,5.7867,BEL
1056280555,Aubange,Belgium,49.5667,5.805,BEL
1056175400,Avelgem,Belgium,50.7753,3.4442,BEL
1056534657,Awans,Belgium,50.6669,5.4633,BEL
1056994881,Aywaille,Belgium,50.4733,5.6739,BEL
1056866817,Balen,Belgium,51.1708,5.1697,BEL
1056702333,Bassenge,Belgium,50.7586,5.6086,BEL
1056747497,Bastogne,Belgium,50.0042,5.72,BEL
1056521734,Beaumont,Belgium,50.2355,4.2383,BEL
1056162320,Beauraing,Belgium,50.1089,4.9561,BEL
1056062852,Beauvechain,Belgium,50.7833,4.7667,BEL
1056159118,Beernem,Belgium,51.1428,3.3408,BEL
1056431058,Beerse,Belgium,51.3192,4.8564,BEL
1056689003,Beersel,Belgium,50.7631,4.3086,BEL
1056560278,Begijnendijk,Belgium,51.0186,4.785,BEL
1056646543,Bekkevoort,Belgium,50.95,4.9667,BEL
1056697952,Beloeil,Belgium,50.5333,3.7167,BEL
1056300146,Beringen,Belgium,51.0333,5.2167,BEL
1056259824,Berlaar,Belgium,51.1178,4.6575,BEL
1056435659,Berlare,Belgium,51.025,4.0025,BEL
1056243222,Bernissart,Belgium,50.4833,3.65,BEL
1056292340,Bertem,Belgium,50.85,4.6167,BEL
1056726462,Bertrix,Belgium,49.8542,5.2533,BEL
1056581431,Beveren,Belgium,51.2,4.25,BEL
1056786913,Beveren,Belgium,50.8756,3.3464,BEL
1056881685,Beyne-Heusay,Belgium,50.6167,5.65,BEL
1056157543,Bierbeek,Belgium,50.8333,4.7667,BEL
1056431359,Bilzen,Belgium,50.8667,5.5167,BEL
1056520553,Binche,Belgium,50.4103,4.1652,BEL
1056155354,Blankenberge,Belgium,51.3,3.1167,BEL
1056021214,Blegny,Belgium,50.6667,5.7333,BEL
1056755409,Bocholt,Belgium,51.1722,5.5794,BEL
1056225265,Boechout,Belgium,51.1636,4.4964,BEL
1056704706,Bonheiden,Belgium,51.0253,4.5483,BEL
1056928401,Boom,Belgium,51.0875,4.3667,BEL
1056329239,Boortmeerbeek,Belgium,50.9833,4.5667,BEL
1056883817,Borgloon,Belgium,50.8022,5.3433,BEL
1056491633,Bornem,Belgium,51.0953,4.2342,BEL
1056005961,Borsbeek,Belgium,51.1928,4.4889,BEL
1056377964,Bouillon,Belgium,49.7956,5.0681,BEL
1056992402,Boussu,Belgium,50.4331,3.7961,BEL
1056605130,Boutersem,Belgium,50.85,4.8333,BEL
1056287952,Braine-l'Alleud,Belgium,50.6806,4.3717,BEL
1056237513,Braine-le-Chateau,Belgium,50.6833,4.2667,BEL
1056000009,Braine-le-Comte,Belgium,50.6,4.1333,BEL
1056017100,Braives,Belgium,50.6333,5.15,BEL
1056299309,Brasschaat,Belgium,51.2931,4.4894,BEL
1056740797,Brecht,Belgium,51.3494,4.6394,BEL
1056554205,Bredene,Belgium,51.2336,2.9756,BEL
1056304554,Bree,Belgium,51.1333,5.5833,BEL
1056953902,Bruges,Belgium,51.2089,3.2242,BEL
1056469830,Brussels,Belgium,50.8353,4.3314,BEL
1056466298,Buggenhout,Belgium,51,4.2,BEL
1056833627,Bullange,Belgium,50.4,6.25,BEL
1056669684,Butgenbach,Belgium,50.4262,6.2041,BEL
1056674858,Celles,Belgium,50.7117,3.4569,BEL
1056800453,Chapelle-lez-Herlaimont,Belgium,50.4667,4.2833,BEL
1056263311,Charleroi,Belgium,50.4167,4.4442,BEL
1056655363,Chastre-Villeroux-Blanmont,Belgium,50.6,4.6333,BEL
1056557187,Chatelet,Belgium,50.4,4.5167,BEL
1056159261,Chaudfontaine,Belgium,50.5833,5.6333,BEL
1056064038,Chaumont-Gistoux,Belgium,50.6839,4.6947,BEL
1056577810,Chievres,Belgium,50.5833,3.8,BEL
1056608598,Chimay,Belgium,50.0479,4.3173,BEL
1056542075,Chiny,Belgium,49.7383,5.3433,BEL
1056079204,Ciney,Belgium,50.2964,5.1003,BEL
1056047515,Colfontaine,Belgium,50.4057,3.8514,BEL
1056107076,Comblain-au-Pont,Belgium,50.4667,5.5833,BEL
1056057326,Courcelles,Belgium,50.4667,4.3667,BEL
1056682611,Court-Saint-Etienne,Belgium,50.6333,4.5667,BEL
1056064147,Couvin,Belgium,50.0519,4.4961,BEL
1056589550,Dalhem,Belgium,50.7167,5.7167,BEL
1056742472,Damme,Belgium,51.25,3.2833,BEL
1056930293,De Haan,Belgium,51.2731,3.0336,BEL
1056000077,De Panne,Belgium,51.1019,2.5917,BEL
1056508352,De Pinte,Belgium,50.9919,3.6478,BEL
1056327002,Deerlijk,Belgium,50.8533,3.3533,BEL
1056715271,Deinze,Belgium,50.9833,3.5272,BEL
1056940491,Denderleeuw,Belgium,50.8833,4.0833,BEL
1056277590,Dendermonde,Belgium,51.0167,4.1,BEL
1056024924,Dentergem,Belgium,50.9636,3.4153,BEL
1056333451,Dessel,Belgium,51.2394,5.1133,BEL
1056217996,Desselgem,Belgium,50.8864,3.35,BEL
1056444494,Destelbergen,Belgium,51.05,3.8,BEL
1056573577,Diepenbeek,Belgium,50.9072,5.4175,BEL
1056065349,Diest,Belgium,50.9847,5.0514,BEL
1056661894,Diksmuide,Belgium,51.0333,2.8667,BEL
1056357068,Dilbeek,Belgium,50.8333,4.25,BEL
1056337712,Dinant,Belgium,50.2564,4.9136,BEL
1056512338,Dison,Belgium,50.6167,5.85,BEL
1056826139,Dour,Belgium,50.3979,3.7807,BEL
1056423988,Drogenbos,Belgium,50.7833,4.3167,BEL
1056716373,Duffel,Belgium,51.0958,4.5061,BEL
1056196256,Durbuy,Belgium,50.3522,5.4564,BEL
1056355929,Ecaussinnes-Lalaing,Belgium,50.5667,4.1833,BEL
1056844359,Edegem,Belgium,51.1547,4.4458,BEL
1056979321,Eeklo,Belgium,51.1858,3.5639,BEL
1056285363,Eghezee,Belgium,50.5833,4.9167,BEL
1056130684,Ekeren,Belgium,51.2772,4.4178,BEL
1056364277,Ellezelles,Belgium,50.7333,3.6833,BEL
1056884890,Enghien,Belgium,50.7,4.0333,BEL
1056355130,Engis,Belgium,50.5833,5.4167,BEL
1056578378,Erquelinnes,Belgium,50.3101,4.1219,BEL
1056729004,Esneux,Belgium,50.5333,5.5667,BEL
1056694919,Essen,Belgium,51.4678,4.47,BEL
1056179340,Estaimpuis,Belgium,50.6756,3.2758,BEL
1056072059,Etalle,Belgium,49.6739,5.6019,BEL
1056267205,Etterbeek,Belgium,50.8361,4.3861,BEL
1056584006,Eupen,Belgium,50.6333,6.0333,BEL
1056731697,Evere,Belgium,50.8719,4.4033,BEL
1056954111,Evergem,Belgium,51.0167,3.7,BEL
1056870201,Farciennes,Belgium,50.4333,4.55,BEL
1056508801,Flemalle-Haute,Belgium,50.6011,5.4628,BEL
1056005769,Fleron,Belgium,50.6167,5.6833,BEL
1056660744,Fleurus,Belgium,50.4833,4.5333,BEL
1056575483,Floreffe,Belgium,50.4333,4.7833,BEL
1056332747,Florennes,Belgium,50.2514,4.6044,BEL
1056601213,Florenville,Belgium,49.6983,5.31,BEL
1056623225,Fontaine-l'Eveque,Belgium,50.4167,4.3167,BEL
1056640531,Forest,Belgium,50.8117,4.3181,BEL
1056190283,Frameries,Belgium,50.4088,3.8906,BEL
1056556479,Galmaarden,Belgium,50.75,3.9667,BEL
1056018953,Ganshoren,Belgium,50.8703,4.3078,BEL
1056307465,Gavere,Belgium,50.9283,3.6611,BEL
1056650070,Geel,Belgium,51.1611,4.9903,BEL
1056179201,Geetbets,Belgium,50.8833,5.1167,BEL
1056071343,Gembloux,Belgium,50.5594,4.6922,BEL
1056101881,Genappe,Belgium,50.6103,4.4497,BEL
1056555160,Genk,Belgium,50.95,5.5,BEL
1056062897,Gent,Belgium,51.0536,3.7253,BEL
1056572611,Geraardsbergen,Belgium,50.7667,3.8667,BEL
1056491300,Gerpinnes,Belgium,50.3369,4.5283,BEL
1056861667,Gesves,Belgium,50.4017,5.0767,BEL
1056562548,Gingelom,Belgium,50.7492,5.1328,BEL
1056419947,Gistel,Belgium,51.1561,2.9672,BEL
1056978369,Glabbeek-Zuurbemde,Belgium,50.8667,4.95,BEL
1056183534,Gooik,Belgium,50.8,4.1167,BEL
1056928691,Gouvy,Belgium,50.1874,5.9449,BEL
1056606953,Grez-Doiceau,Belgium,50.7333,4.7,BEL
1056864579,Grimbergen,Belgium,50.9333,4.3833,BEL
1056834518,Grobbendonk,Belgium,51.1919,4.7386,BEL
1056601741,Haacht,Belgium,50.9767,4.6372,BEL
1056802735,Haaltert,Belgium,50.9,4,BEL
1056000063,Habay-la-Vieille,Belgium,49.7303,5.6464,BEL
1056456739,Halen,Belgium,50.9481,5.1144,BEL
1056061836,Halle,Belgium,50.7361,4.2372,BEL
1056862264,Hamme,Belgium,51.0919,4.1356,BEL
1056298580,Hamois,Belgium,50.3333,5.1333,BEL
1056196454,Hannut,Belgium,50.6725,5.078,BEL
1056312961,Harelbeke,Belgium,50.8567,3.3131,BEL
1056617022,Hasselt,Belgium,50.9305,5.3385,BEL
1056661914,Hastiere-par-dela,Belgium,50.2167,4.8333,BEL
1056076488,Havelange,Belgium,50.3833,5.25,BEL
1056389559,Heers,Belgium,50.7511,5.3014,BEL
1056533253,Heist-op-den-Berg,Belgium,51.0758,4.7286,BEL
1056061898,Hemiksem,Belgium,51.1431,4.3411,BEL
1056130068,Hensies,Belgium,50.4328,3.6847,BEL
1056180575,Herent,Belgium,50.9081,4.6706,BEL
1056125768,Herentals,Belgium,51.1767,4.8364,BEL
1056849733,Herenthout,Belgium,51.1392,4.7544,BEL
1056088942,Herk-de-Stad,Belgium,50.9406,5.1672,BEL
1056275569,Herne,Belgium,50.7242,4.0339,BEL
1056197098,Heron,Belgium,50.55,5.0833,BEL
1056803578,Herselt,Belgium,51.0536,4.8833,BEL
1056571016,Herstal,Belgium,50.6644,5.63,BEL
1056779487,Herve,Belgium,50.6333,5.8,BEL
1056826596,Herzele,Belgium,50.8833,3.8833,BEL
1056041264,Hoegaarden,Belgium,50.7833,4.9,BEL
1056289964,Hoeilaart,Belgium,50.7667,4.4667,BEL
1056339623,Hoeselt,Belgium,50.85,5.4833,BEL
1056025323,Holsbeek,Belgium,50.9167,4.7667,BEL
1056206386,Hooglede,Belgium,50.9781,3.0817,BEL
1056021828,Hoogstraten,Belgium,51.4008,4.7611,BEL
1056288696,Hotton,Belgium,50.2683,5.4467,BEL
1056443256,Houffalize,Belgium,50.132,5.7894,BEL
1056273463,Houthulst,Belgium,50.9783,2.9506,BEL
1056838878,Hove,Belgium,51.1486,4.4775,BEL
1056380225,Huldenberg,Belgium,50.7833,4.5833,BEL
1056358506,Hulshout,Belgium,51.0753,4.7886,BEL
1056597064,Huy,Belgium,50.5167,5.2333,BEL
1056000402,Ichtegem,Belgium,51.1,3,BEL
1056744519,Ieper,Belgium,50.85,2.8833,BEL
1056781934,Incourt,Belgium,50.7,4.7833,BEL
1056487439,Ingelmunster,Belgium,50.9208,3.2533,BEL
1056807513,Ittre,Belgium,50.65,4.2667,BEL
1056662336,Izegem,Belgium,50.9172,3.215,BEL
1056724213,Jabbeke,Belgium,51.1833,3.1,BEL
1056772440,Jalhay,Belgium,50.5572,5.9642,BEL
1056315355,Jette,Belgium,50.8758,4.3244,BEL
1056984728,Jodoigne,Belgium,50.7167,4.8667,BEL
1056730638,Juprelle,Belgium,50.7167,5.5333,BEL
1056563634,Jurbise,Belgium,50.5333,3.9333,BEL
1056545149,Kalmthout,Belgium,51.3833,4.4764,BEL
1056286425,Kampenhout,Belgium,50.95,4.55,BEL
1056754510,Kapelle-op-den-Bos,Belgium,51.0167,4.3667,BEL
1056965326,Kapellen,Belgium,51.315,4.4294,BEL
1056633350,Kaprijke,Belgium,51.2167,3.6,BEL
1056843375,Kasterlee,Belgium,51.2408,4.9678,BEL
1056257778,Keerbergen,Belgium,51.0031,4.6311,BEL
1056406187,Kinrooi,Belgium,51.145,5.7403,BEL
1056022450,Knokke-Heist,Belgium,51.3414,3.2869,BEL
1056902791,Koekelare,Belgium,51.0906,2.9803,BEL
1056006015,Koekelberg,Belgium,50.8606,4.3317,BEL
1056544281,Koksijde,Belgium,51.1,2.65,BEL
1056241765,Kontich,Belgium,51.1344,4.4456,BEL
1056621981,Kortemark,Belgium,51.0286,3.0444,BEL
1056755846,Kortenaken,Belgium,50.9,5.0667,BEL
1056214918,Kortenberg,Belgium,50.8833,4.5333,BEL
1056706411,Kortessem,Belgium,50.8667,5.3833,BEL
1056702614,Kortrijk,Belgium,50.8333,3.2667,BEL
1056363403,Kraainem,Belgium,50.8667,4.4667,BEL
1056526528,Kruibeke,Belgium,51.1686,4.3092,BEL
1056611924,Kruishoutem,Belgium,50.9,3.5333,BEL
1056459162,Kuurne,Belgium,50.8519,3.2861,BEL
1056215360,La Bruyere,Belgium,50.5,4.8,BEL
1056326759,La Calamine,Belgium,50.7,6,BEL
1056745259,La Hulpe,Belgium,50.7333,4.4833,BEL
1056383929,La Louviere,Belgium,50.4778,4.1881,BEL
1056466372,Laarne,Belgium,51.0292,3.8519,BEL
1056538435,Lanaken,Belgium,50.8925,5.6497,BEL
1056582232,Landen,Belgium,50.7547,5.0814,BEL
1056292516,Lebbeke,Belgium,51,4.1167,BEL
1056629611,Lede,Belgium,50.9658,3.9778,BEL
1056674773,Ledegem,Belgium,50.8531,3.1267,BEL
1056842535,Leglise,Belgium,49.8,5.5375,BEL
1056737948,Lendelede,Belgium,50.8858,3.2372,BEL
1056277308,Leopoldsburg,Belgium,51.1169,5.2558,BEL
1056283764,Lessines,Belgium,50.7117,3.83,BEL
1056866572,Leuven,Belgium,50.8775,4.7044,BEL
1056311682,Libin,Belgium,49.9828,5.2578,BEL
1056245942,Lichtervelde,Belgium,51.0333,3.1333,BEL
1056222350,Liedekerke,Belgium,50.8667,4.0833,BEL
1056513284,Liege,Belgium,50.6397,5.5706,BEL
1056505135,Lierre,Belgium,51.1311,4.5697,BEL
1056651207,Lille,Belgium,51.2383,4.8242,BEL
1056535709,Lint,Belgium,51.1278,4.4943,BEL
1056719990,Lobbes,Belgium,50.346,4.2655,BEL
1056543917,Lochristi,Belgium,51.0953,3.8325,BEL
1056040417,Lokeren,Belgium,51.1,3.9833,BEL
1056200489,Lommel,Belgium,51.2333,5.3167,BEL
1056504817,Londerzeel,Belgium,51,4.3,BEL
1056031300,Lontzen,Belgium,50.6833,6,BEL
1056082103,Louvain-la-Neuve,Belgium,50.6696,4.6112,BEL
1056273817,Lovendegem,Belgium,51.095,3.6056,BEL
1056043837,Lubbeek,Belgium,50.8817,4.8414,BEL
1056359094,Lummen,Belgium,50.9833,5.2,BEL
1056459643,Maaseik,Belgium,51.1019,5.7856,BEL
1056477677,Machelen,Belgium,50.9103,4.4367,BEL
1056438653,Maldegem,Belgium,51.2089,3.4464,BEL
1056228315,Malmedy,Belgium,50.4167,6.0167,BEL
1056832632,Manage,Belgium,50.5,4.2333,BEL
1056302403,Marche-en-Famenne,Belgium,50.2275,5.3444,BEL
1056196237,Marchin,Belgium,50.4667,5.2333,BEL
1056687706,Mechelen,Belgium,51.0281,4.4803,BEL
1056407060,Mechelen-aan-de-Maas,Belgium,50.9967,5.7025,BEL
1056144149,Meerhout,Belgium,51.1317,5.0772,BEL
1056974860,Meise,Belgium,50.9333,4.3333,BEL
1056598788,Melle,Belgium,51,3.8,BEL
1056841514,Menen,Belgium,50.7956,3.1217,BEL
1056962343,Merchtem,Belgium,50.9667,4.2333,BEL
1056415717,Merelbeke,Belgium,50.9939,3.7461,BEL
1056591557,Merksplas,Belgium,51.3581,4.8628,BEL
1056874547,Messancy,Belgium,49.595,5.8183,BEL
1056136798,Mettet,Belgium,50.3192,4.6569,BEL
1056545779,Meulebeke,Belgium,50.9497,3.2869,BEL
1056231349,Middelkerke,Belgium,51.1847,2.8192,BEL
1056610428,Moerbeke,Belgium,51.1733,3.9422,BEL
1056847907,Mol,Belgium,51.1842,5.1156,BEL
1056025203,Momignies,Belgium,50.0294,4.1667,BEL
1056836704,Mons,Belgium,50.455,3.952,BEL
1056374357,Mont-Saint-Guibert,Belgium,50.6333,4.6167,BEL
1056126803,Montignies-le-Tilleul,Belgium,50.3833,4.3833,BEL
1056720608,Moorslede,Belgium,50.8906,3.0628,BEL
1056103437,Moortebeek,Belgium,50.8547,4.3386,BEL
1056514399,Morlanwelz-Mariemont,Belgium,50.45,4.2333,BEL
1056283690,Mortsel,Belgium,51.1703,4.4567,BEL
1056095679,Mouscron,Belgium,50.7444,3.2156,BEL
1056954156,Namur,Belgium,50.4667,4.8667,BEL
1056915954,Nandrin,Belgium,50.5,5.4167,BEL
1056386865,Nassogne,Belgium,50.1286,5.3419,BEL
1056445796,Neerpelt,Belgium,51.2278,5.4422,BEL
1056857306,Neufchateau,Belgium,49.8411,5.4353,BEL
1056686535,Nevele,Belgium,51.0342,3.5475,BEL
1056834573,Niel,Belgium,51.11,4.3303,BEL
1056403823,Nieuwerkerken,Belgium,50.8667,5.2,BEL
1056198212,Nieuwpoort,Belgium,51.1294,2.7514,BEL
1056215628,Nijlen,Belgium,51.1611,4.6703,BEL
1056641524,Ninove,Belgium,50.8333,4.0167,BEL
1056187375,Nivelles,Belgium,50.5964,4.3236,BEL
1056175337,Ohey,Belgium,50.4353,5.1217,BEL
1056909759,Olen,Belgium,51.1439,4.8597,BEL
1056179626,Oosterzele,Belgium,50.9458,3.8042,BEL
1056412742,Oostkamp,Belgium,51.1544,3.2353,BEL
1056462749,Oostrozebeke,Belgium,50.9167,3.3333,BEL
1056213359,Opglabbeek,Belgium,51.0422,5.5825,BEL
1056667924,Opwijk,Belgium,50.9667,4.1833,BEL
1056454956,Ostend,Belgium,51.2333,2.9333,BEL
1056031446,Oud-Heverlee,Belgium,50.8333,4.6667,BEL
1056409500,Oud-Turnhout,Belgium,51.3178,4.9817,BEL
1056780523,Oudenaarde,Belgium,50.85,3.6,BEL
1056496818,Oudenburg,Belgium,51.1833,3,BEL
1056414303,Oupeye,Belgium,50.7083,5.6431,BEL
1056558887,Overijse,Belgium,50.7833,4.5333,BEL
1056903151,Overpelt,Belgium,51.2111,5.4256,BEL
1056837749,Paliseul,Belgium,49.9042,5.1356,BEL
1056518207,Pecq,Belgium,50.6833,3.3333,BEL
1056050741,Peer,Belgium,51.1328,5.4536,BEL
1056265480,Pepinster,Belgium,50.5667,5.8167,BEL
1056806547,Peruwelz,Belgium,50.5167,3.5833,BEL
1056663953,Perwez,Belgium,50.6167,4.8167,BEL
1056548707,Philippeville,Belgium,50.1958,4.5431,BEL
1056660124,Pittem,Belgium,50.9833,3.2667,BEL
1056147295,Plombieres,Belgium,50.7333,5.95,BEL
1056160831,Pont-a-Celles,Belgium,50.5,4.35,BEL
1056648990,Poperinge,Belgium,50.8547,2.7256,BEL
1056732493,Profondeville,Belgium,50.3769,4.87,BEL
1056061719,Putte,Belgium,51.0542,4.6294,BEL
1056438332,Puurs,Belgium,51.0761,4.2803,BEL
1056660273,Quaregnon,Belgium,50.4333,3.8667,BEL
1056374664,Quievrain,Belgium,50.4049,3.6829,BEL
1056287455,Raeren,Belgium,50.6833,6.1167,BEL
1056601478,Ramillies-Offus,Belgium,50.6333,4.9,BEL
1056004847,Ranst,Belgium,51.2,4.55,BEL
1056915524,Ravels,Belgium,51.3703,4.9936,BEL
1056706761,Remicourt,Belgium,50.6833,5.3333,BEL
1056722823,Retie,Belgium,51.2658,5.0828,BEL
1056578404,Riemst,Belgium,50.8089,5.6019,BEL
1056525868,Rijkevorsel,Belgium,51.3489,4.7597,BEL
1056643005,Rixensart,Belgium,50.7167,4.5333,BEL
1056032806,Rochefort,Belgium,50.159,5.2218,BEL
1056334112,Roeselare,Belgium,50.9447,3.1233,BEL
1056897548,Ronse,Belgium,50.75,3.6,BEL
1056082095,Rotselaar,Belgium,50.9511,4.7108,BEL
1056321378,Ruisbroek,Belgium,50.7903,4.2975,BEL
1056956517,Ruiselede,Belgium,51.0333,3.3833,BEL
1056468714,Rumes,Belgium,50.5561,3.3039,BEL
1056887516,Rumst,Belgium,51.0769,4.4233,BEL
1056282254,Saint-Georges,Belgium,50.6,5.35,BEL
1056129350,Saint-Ghislain,Belgium,50.45,3.8167,BEL
1056412877,Saint-Hubert,Belgium,50.0256,5.3742,BEL
1056730951,Saint-Nicolas,Belgium,50.6333,5.5333,BEL
1056135574,Saint-Vith,Belgium,50.2833,6.1333,BEL
1056406794,Schelle,Belgium,51.1333,4.3333,BEL
1056346547,Scherpenheuvel,Belgium,51.0103,4.9728,BEL
1056448493,Schilde,Belgium,51.2333,4.5667,BEL
1056187001,Schoten,Belgium,51.25,4.5,BEL
1056829223,Seneffe,Belgium,50.5333,4.25,BEL
1056627579,Seraing,Belgium,50.5986,5.5122,BEL
1056623734,Silly,Belgium,50.65,3.9167,BEL
1056985504,Sint-Amands,Belgium,51.0525,4.205,BEL
1056326710,Sint-Genesius-Rode,Belgium,50.75,4.35,BEL
1056149557,Sint-Gillis-Waas,Belgium,51.2186,4.1236,BEL
1056751248,Sint-Joost-ten-Node,Belgium,50.8508,4.3692,BEL
1056641832,Sint-Katelijne-Waver,Belgium,51.0667,4.5333,BEL
1056830939,Sint-Kruis,Belgium,51.2139,3.2503,BEL
1056330020,Sint-Laureins,Belgium,51.2333,3.5333,BEL
1056997842,Sint-Lievens-Houtem,Belgium,50.9167,3.8667,BEL
1056809232,Sint-Martens-Latem,Belgium,51.0186,3.6378,BEL
1056514548,Sint-Martens-Lennik,Belgium,50.8,4.15,BEL
1056028982,Sint-Niklaas,Belgium,51.1644,4.1392,BEL
1056770935,Sint-Pieters-Leeuw,Belgium,50.7833,4.25,BEL
1056944500,Sint-Truiden,Belgium,50.8167,5.1833,BEL
1056957745,Soignies,Belgium,50.5667,4.0667,BEL
1056974032,Sombreffe,Belgium,50.5167,4.6,BEL
1056956885,Somme-Leuze,Belgium,50.3333,5.3667,BEL
1056664546,Soumagne,Belgium,50.6167,5.75,BEL
1056521041,Spa,Belgium,50.5,5.8667,BEL
1056261345,Sprimont,Belgium,50.5,5.6667,BEL
1056032515,Stabroek,Belgium,51.3333,4.3667,BEL
1056254090,Staden,Belgium,50.975,3.0147,BEL
1056769188,Stavelot,Belgium,50.3947,5.9297,BEL
1056649195,Steenokkerzeel,Belgium,50.9189,4.5083,BEL
1056000195,Stekene,Belgium,51.2061,4.04,BEL
1056178805,Temse,Belgium,51.1261,4.2133,BEL
1056099349,Ternat,Belgium,50.8667,4.1833,BEL
1056221910,Tervuren,Belgium,50.8167,4.5,BEL
1056426796,Tessenderlo,Belgium,51.0697,5.0897,BEL
1056495369,Theux,Belgium,50.5349,5.8134,BEL
1056107614,Thuin,Belgium,50.3397,4.287,BEL
1056782112,Tielt,Belgium,50.9989,3.3258,BEL
1056670352,Tienen,Belgium,50.8,4.9333,BEL
1056711491,Tongeren,Belgium,50.7794,5.4631,BEL
1056225493,Torhout,Belgium,51.05,3.1,BEL
1056138540,Tournai,Belgium,50.6,3.3833,BEL
1056959552,Tremelo,Belgium,50.9911,4.7044,BEL
1056040625,Trooz,Belgium,50.5667,5.6833,BEL
1056180721,Tubize,Belgium,50.6928,4.205,BEL
1056378407,Turnhout,Belgium,51.3167,4.9333,BEL
1056464610,Verviers,Belgium,50.5833,5.85,BEL
1056727573,Veurne,Belgium,51.0722,2.6622,BEL
1056295387,Vielsalm,Belgium,50.2861,5.9181,BEL
1056078634,Villers-la-Ville,Belgium,50.5833,4.5333,BEL
1056312897,Villers-le-Bouillet,Belgium,50.5833,5.2667,BEL
1056838834,Vilvoorde,Belgium,50.9281,4.4245,BEL
1056402368,Virton,Belgium,49.5675,5.5325,BEL
1056336313,Vise,Belgium,50.7333,5.6833,BEL
1056242773,Vorselaar,Belgium,51.2019,4.7717,BEL
1056845357,Vosselaar,Belgium,51.3081,4.8883,BEL
1056270286,Waarschoot,Belgium,51.15,3.6,BEL
1056237284,Waasmunster,Belgium,51.0667,4.0333,BEL
1056121234,Wachtebeke,Belgium,51.17,3.8594,BEL
1056981743,Waimes,Belgium,50.4167,6.1167,BEL
1056075775,Walcourt,Belgium,50.2519,4.4322,BEL
1056775629,Walhain-Saint-Paul,Belgium,50.6411,4.6681,BEL
1056151767,Wanze,Belgium,50.5353,5.2133,BEL
1056938686,Waregem,Belgium,50.8811,3.4001,BEL
1056180426,Waremme,Belgium,50.7,5.25,BEL
1056353647,Waterloo,Belgium,50.7167,4.3833,BEL
1056538762,Wavre,Belgium,50.7167,4.6,BEL
1056282344,Welkenraedt,Belgium,50.6606,5.9714,BEL
1056000019,Wellen,Belgium,50.8394,5.3394,BEL
1056649043,Wemmel,Belgium,50.9167,4.3,BEL
1056938335,Wervik,Belgium,50.7797,3.04,BEL
1056672480,Westerlo,Belgium,51.0897,4.9153,BEL
1056973131,Wetteren,Belgium,51,3.8833,BEL
1056233593,Wevelgem,Belgium,50.8081,3.1839,BEL
1056614570,Wezembeek-Oppem,Belgium,50.8333,4.5,BEL
1056534647,Wichelen,Belgium,51.0042,3.9725,BEL
1056411579,Wielsbeke,Belgium,50.9089,3.3697,BEL
1056561249,Wijnegem,Belgium,51.2278,4.5156,BEL
1056186071,Willebroek,Belgium,51.0597,4.3581,BEL
1056856588,Wilrijk,Belgium,51.1667,4.3833,BEL
1056221494,Wingene,Belgium,51.05,3.2667,BEL
1056798866,Wommelgem,Belgium,51.2036,4.5219,BEL
1056981406,Wondelgem,Belgium,51.0889,3.7131,BEL
1056525110,Wuustwezel,Belgium,51.3922,4.5942,BEL
1056417528,Yvoir,Belgium,50.3333,4.8833,BEL
1056347611,Zandhoven,Belgium,51.2136,4.66,BEL
1056786797,Zaventem,Belgium,50.8833,4.4667,BEL
1056608404,Zedelgem,Belgium,51.1431,3.1361,BEL
1056909340,Zele,Belgium,51.0667,4.0333,BEL
1056552955,Zelzate,Belgium,51.1975,3.8139,BEL
1056199870,Zemst,Belgium,50.9828,4.4611,BEL
1056119513,Zingem,Belgium,50.9042,3.6536,BEL
1056874458,Zoersel,Belgium,51.2689,4.7125,BEL
1056975482,Zomergem,Belgium,51.1167,3.5667,BEL
1056182511,Zonhoven,Belgium,50.9853,5.3647,BEL
1056453121,Zonnebeke,Belgium,50.8667,2.9833,BEL
1056768332,Zottegem,Belgium,50.8667,3.8167,BEL
1056468656,Zoutleeuw,Belgium,50.8333,5.1036,BEL
1056878448,Zulte,Belgium,50.9144,3.4425,BEL
1056062274,Zutendaal,Belgium,50.9333,5.5667,BEL
1056326453,Zwevegem,Belgium,50.8,3.3333,BEL
1056749597,Zwijndrecht,Belgium,51.2167,4.3333,BEL
1084150679,Belize City,Belize,17.4986,-88.1886,BLZ
1084586375,Belmopan,Belize,17.25,-88.7675,BLZ
1084938400,Corozal,Belize,18.4,-88.4,BLZ
1084718311,Dangriga,Belize,16.9667,-88.2167,BLZ
1084569054,Ladyville,Belize,17.5567,-88.2889,BLZ
1084547220,Orange Walk,Belize,18.075,-88.5583,BLZ
1084536442,Punta Gorda,Belize,16.1,-88.8,BLZ
1084924884,San Ignacio,Belize,17.1588,-89.0696,BLZ
1084929106,San Pedro,Belize,17.9214,-87.9611,BLZ
1204597697,Abomey,Benin,7.1853,1.9914,BEN
1204955174,Cotonou,Benin,6.402,2.518,BEN
1204972666,Djougou,Benin,9.7004,1.68,BEN
1204497206,Dogbo,Benin,6.8167,1.7833,BEN
1204875413,Kandi,Benin,11.1304,2.94,BEN
1204036358,Lokossa,Benin,6.615,1.715,BEN
1204752595,Natitingou,Benin,10.3204,1.39,BEN
